%time,field.header.seq,field.header.stamp,field.header.frame_id,field.status.status,field.status.service,field.latitude,field.longitude,field.altitude,field.position_covariance0,field.position_covariance1,field.position_covariance2,field.position_covariance3,field.position_covariance4,field.position_covariance5,field.position_covariance6,field.position_covariance7,field.position_covariance8,field.position_covariance_type
1505973364099608898,934,1505973364099608898,odom,2,1,22.3042448359,114.180911857,4.68077558931,2.60920340094,0.0,0.0,0.0,2.96391127325,0.0,0.0,0.0,194.128898394,2
1505973364567434072,935,1505973364567434072,odom,2,1,22.3042698101,114.180921374,0.85805982817,2.15779972261,0.0,0.0,0.0,2.52244597418,0.0,0.0,0.0,56.9978342662,2
1505973365567399024,936,1505973365567399024,odom,2,1,22.3042808638,114.180930439,1.77317072358,2.03361982149,0.0,0.0,0.0,2.28334144432,0.0,0.0,0.0,41.2696324932,2
1505973366567344903,937,1505973366567344903,odom,2,1,22.3042949805,114.180943022,2.50718417019,1.94165325383,0.0,0.0,0.0,2.14286249949,0.0,0.0,0.0,32.47823675,2
1505973367567476987,938,1505973367567476987,odom,2,1,22.3043124834,114.180955613,4.07735599391,1.71971389533,0.0,0.0,0.0,1.84720978948,0.0,0.0,0.0,17.6663597701,2
1505973368566772937,939,1505973368566772937,odom,2,1,22.3043392777,114.180976006,4.40745412372,1.68534548721,0.0,0.0,0.0,1.81669857038,0.0,0.0,0.0,15.9126230142,2
1505973369566410064,940,1505973369566410064,odom,2,1,22.3043742702,114.18099957,4.68170070928,1.65666392271,0.0,0.0,0.0,1.798468605,0.0,0.0,0.0,14.5078639669,2
1505973370566528081,941,1505973370566528081,odom,2,1,22.3044180024,114.181027202,5.0020193588,1.63204742438,0.0,0.0,0.0,1.79258102864,0.0,0.0,0.0,13.3440977237,2
1505973371567415952,942,1505973371567415952,odom,2,1,22.3044711582,114.181055571,5.25914799329,1.6130981659,0.0,0.0,0.0,1.79562444336,0.0,0.0,0.0,12.3725338991,2
1505973372566554069,943,1505973372566554069,odom,2,1,22.3045326747,114.181080422,5.57970017102,1.61423706112,0.0,0.0,0.0,1.81639821901,0.0,0.0,0.0,11.8346115888,2
1505973373566431999,944,1505973373566431999,odom,2,1,22.3046034715,114.181104738,5.75179468933,1.61784678694,0.0,0.0,0.0,1.82175472071,0.0,0.0,0.0,11.3591339201,2
1505973374567190885,945,1505973374567190885,odom,2,1,22.3046829015,114.181124046,5.58670313749,1.60043595915,0.0,0.0,0.0,1.7724866837,0.0,0.0,0.0,10.6909932907,2
1505973375567385911,946,1505973375567385911,odom,2,1,22.3047576838,114.181148066,5.53630806226,1.58169251279,0.0,0.0,0.0,1.73592799438,0.0,0.0,0.0,10.1189492879,2
1505973376567085027,947,1505973376567085027,odom,2,1,22.304817231,114.181170375,5.57162226737,1.56600604254,0.0,0.0,0.0,1.71214979806,0.0,0.0,0.0,9.62399978331,2
1505973377567140102,948,1505973377567140102,odom,2,1,22.3048554733,114.181188749,5.60843045544,1.55862616654,0.0,0.0,0.0,1.69845870089,0.0,0.0,0.0,8.37578457479,2
1505973378567027091,949,1505973378567027091,odom,2,1,22.3048801709,114.181199872,5.69763821922,1.55280448659,0.0,0.0,0.0,1.69105593196,0.0,0.0,0.0,8.07323894795,2
1505973379566535949,950,1505973379566535949,odom,2,1,22.3049026297,114.181211937,5.72673830669,1.57432099049,0.0,0.0,0.0,1.72020733467,0.0,0.0,0.0,8.07956408798,2
1505973380567531108,951,1505973380567531108,odom,2,1,22.30492384,114.181224284,5.79084460996,1.58932513674,0.0,0.0,0.0,1.7526525648,0.0,0.0,0.0,8.03215911744,2
1505973381566979885,952,1505973381566979885,odom,2,1,22.3049414094,114.181235787,5.76441447251,1.6045507682,0.0,0.0,0.0,1.77686831041,0.0,0.0,0.0,7.81832899436,2
1505973382566566944,953,1505973382566566944,odom,2,1,22.3049520489,114.181240996,5.95080159791,1.600124953,0.0,0.0,0.0,1.78859466452,0.0,0.0,0.0,7.60569913221,2
1505973383567028999,954,1505973383567028999,odom,2,1,22.304955472,114.181241427,6.14752464928,1.58945659878,0.0,0.0,0.0,1.79134235707,0.0,0.0,0.0,7.41505989164,2
1505973384566639900,955,1505973384566639900,odom,2,1,22.3049513737,114.181234778,6.32447859645,1.57197119052,0.0,0.0,0.0,1.76552669932,0.0,0.0,0.0,7.24399492624,2
1505973385567625045,956,1505973385567625045,odom,2,1,22.3049483212,114.181226155,6.423654221,1.55020164156,0.0,0.0,0.0,1.72024962185,0.0,0.0,0.0,7.08955130427,2
1505973386567380905,957,1505973386567380905,odom,2,1,22.3049550934,114.181224582,6.47321655042,1.53459459151,0.0,0.0,0.0,1.68621343592,0.0,0.0,0.0,6.94760026284,2
1505973387566245079,958,1505973387566245079,odom,2,1,22.3049733398,114.18123016,6.66234664153,1.47162576101,0.0,0.0,0.0,1.59798611041,0.0,0.0,0.0,4.84098859348,2
1505973388566912889,959,1505973388566912889,odom,2,1,22.30500068,114.181240859,6.74106767401,1.46730292565,0.0,0.0,0.0,1.58484899198,0.0,0.0,0.0,4.82025585655,2
1505973389566884040,960,1505973389566884040,odom,2,1,22.3050352985,114.181253553,6.82750429306,1.46531837529,0.0,0.0,0.0,1.57147391531,0.0,0.0,0.0,4.83481479664,2
1505973390566715955,961,1505973390566715955,odom,2,1,22.305075393,114.181268679,6.91636609007,1.46022246007,0.0,0.0,0.0,1.55662787635,0.0,0.0,0.0,4.85335182742,2
1505973391567280054,962,1505973391567280054,odom,2,1,22.305120776,114.181286231,7.17790471762,1.45297468881,0.0,0.0,0.0,1.5435359888,0.0,0.0,0.0,4.85406170321,2
1505973392567635059,963,1505973392567635059,odom,2,1,22.305164871,114.181303526,7.53673648555,1.43045708279,0.0,0.0,0.0,1.53149416307,0.0,0.0,0.0,4.85664460175,2
1505973393566852092,964,1505973393566852092,odom,2,1,22.3052066614,114.181319871,7.6988788778,1.42082894846,0.0,0.0,0.0,1.52194453701,0.0,0.0,0.0,4.874520936,2
1505973394566819906,965,1505973394566819906,odom,2,1,22.3052463481,114.181334136,7.85378326196,1.41275720762,0.0,0.0,0.0,1.51339198669,0.0,0.0,0.0,4.90171971701,2
1505973395567657947,966,1505973395567657947,odom,2,1,22.3052822122,114.181346071,8.06950587872,1.405173918,0.0,0.0,0.0,1.50655020489,0.0,0.0,0.0,4.93955519016,2
1505973396566682100,967,1505973396566682100,odom,2,1,22.3053192428,114.181356583,8.3397970479,1.39826555144,0.0,0.0,0.0,1.50391553257,0.0,0.0,0.0,4.99834082866,2
1505973397566664934,968,1505973397566664934,odom,2,1,22.3053597709,114.18136516,8.4919508379,1.39343040022,0.0,0.0,0.0,1.49438783644,0.0,0.0,0.0,4.77935413912,2
1505973398566474914,969,1505973398566474914,odom,2,1,22.3054038238,114.181373992,9.2670923993,1.39222087664,0.0,0.0,0.0,1.49113661375,0.0,0.0,0.0,4.77292843963,2
1505973399566152095,970,1505973399566152095,odom,2,1,22.3054500344,114.181379666,9.75510986336,1.3945398852,0.0,0.0,0.0,1.49428096777,0.0,0.0,0.0,4.87782001153,2
1505973400566371917,971,1505973400566371917,odom,2,1,22.3054930654,114.181381815,10.2744717617,1.39804821229,0.0,0.0,0.0,1.49800630343,0.0,0.0,0.0,4.98540557596,2
1505973401567214965,972,1505973401567214965,odom,2,1,22.3055346116,114.181381106,10.7686207294,1.40424001599,0.0,0.0,0.0,1.50670700268,0.0,0.0,0.0,5.14643211824,2
1505973402566236019,973,1505973402566236019,odom,2,1,22.3055818447,114.181377831,11.311210487,1.41314523146,0.0,0.0,0.0,1.52219865154,0.0,0.0,0.0,5.33339904662,2
1505973403566720008,974,1505973403566720008,odom,2,1,22.305633602,114.181371178,11.530930073,1.41860608775,0.0,0.0,0.0,1.53697811631,0.0,0.0,0.0,5.50443381942,2
1505973404567085027,975,1505973404567085027,odom,2,1,22.3056891242,114.181357267,11.698515662,1.426425719,0.0,0.0,0.0,1.55482683935,0.0,0.0,0.0,5.69126174428,2
1505973405566930055,976,1505973405566930055,odom,2,1,22.3057479091,114.181336311,11.8217429435,1.43546151702,0.0,0.0,0.0,1.57493186034,0.0,0.0,0.0,5.89418489209,2
1505973406566279888,977,1505973406566279888,odom,2,1,22.3058083526,114.181309899,12.0059863394,1.45799965028,0.0,0.0,0.0,1.607962844,0.0,0.0,0.0,6.18526411793,2
1505973407566824913,978,1505973407566824913,odom,2,1,22.3058729295,114.181275907,12.3073852146,1.43023116502,0.0,0.0,0.0,1.63366210458,0.0,0.0,0.0,5.75684198975,2
1505973408567230939,979,1505973408567230939,odom,2,1,22.3059351253,114.181235482,12.7452194449,1.42677523142,0.0,0.0,0.0,1.68732817447,0.0,0.0,0.0,6.08928340157,2
1505973409567641973,980,1505973409567641973,odom,2,1,22.3059939328,114.181190901,13.0252364324,1.45705068512,0.0,0.0,0.0,1.7711339113,0.0,0.0,0.0,6.48204609423,2
1505973410566838979,981,1505973410566838979,odom,2,1,22.3060497186,114.181141457,13.2252974445,1.49879071462,0.0,0.0,0.0,1.88196514545,0.0,0.0,0.0,6.93474709423,2
1505973411566771984,982,1505973411566771984,odom,2,1,22.3061029651,114.181087472,13.3109901845,1.55119788085,0.0,0.0,0.0,2.01080214674,0.0,0.0,0.0,7.44545573659,2
1505973412567488908,983,1505973412567488908,odom,2,1,22.3061538168,114.181028192,13.2285440061,1.61138051122,0.0,0.0,0.0,2.14624708885,0.0,0.0,0.0,8.01116873207,2
1505973413566694021,984,1505973413566694021,odom,2,1,22.3062010666,114.180961974,13.1205278039,1.70457178644,0.0,0.0,0.0,2.36220432921,0.0,0.0,0.0,8.70487624556,2
1505973414567152023,985,1505973414567152023,odom,2,1,22.3062389351,114.180893232,12.9469240177,1.82654608464,0.0,0.0,0.0,2.63881756813,0.0,0.0,0.0,9.50923686727,2
1505973415567552089,986,1505973415567552089,odom,2,1,22.3062652002,114.180828842,12.7865098054,1.98498312403,0.0,0.0,0.0,2.9945444451,0.0,0.0,0.0,10.4428132469,2
1505973416566478013,987,1505973416566478013,odom,2,1,22.3062862314,114.180760171,12.6433462398,2.19070517562,0.0,0.0,0.0,3.45509470772,0.0,0.0,0.0,11.528342512,2
1505973417566922903,988,1505973417566922903,odom,2,1,22.3063026882,114.180690889,13.1130218934,2.33659303395,0.0,0.0,0.0,3.17976423828,0.0,0.0,0.0,11.0856894463,2
1505973418567101955,989,1505973418567101955,odom,2,1,22.3063065265,114.180606949,12.9143374935,2.56564971918,0.0,0.0,0.0,3.30839679064,0.0,0.0,0.0,11.6414335712,2
1505973419567344903,990,1505973419567344903,odom,2,1,22.306297365,114.180518249,12.6692651203,2.89916462971,0.0,0.0,0.0,3.8383412318,0.0,0.0,0.0,12.8143335747,2
1505973420567260980,991,1505973420567260980,odom,2,1,22.306271375,114.180443079,11.8366275765,2.75190741593,0.0,0.0,0.0,3.03719155871,0.0,0.0,0.0,12.7723558244,2
1505973421566926956,992,1505973421566926956,odom,2,1,22.3062363642,114.180374176,11.1111437632,2.67742400712,0.0,0.0,0.0,2.63281227369,0.0,0.0,0.0,12.6944145809,2
1505973422567312955,993,1505973422567312955,odom,2,1,22.3061987216,114.18031143,11.0211120406,2.7570081513,0.0,0.0,0.0,2.75272773016,0.0,0.0,0.0,13.3279409389,2
1505973423566659927,994,1505973423566659927,odom,2,1,22.3061614499,114.180263412,10.599076719,3.01693177218,0.0,0.0,0.0,2.83155381153,0.0,0.0,0.0,13.6553938616,2
1505973424567320108,995,1505973424567320108,odom,2,1,22.3061243904,114.180218137,10.2759956038,3.33845631222,0.0,0.0,0.0,2.56853388358,0.0,0.0,0.0,12.248253131,2
1505973425568087100,996,1505973425568087100,odom,2,1,22.306089297,114.180171456,10.4370097574,3.68183926438,0.0,0.0,0.0,2.2219915387,0.0,0.0,0.0,11.2710013603,2
1505973426566775083,997,1505973426566775083,odom,2,1,22.3060543443,114.180127426,10.1899885843,3.17583708716,0.0,0.0,0.0,2.18230385232,0.0,0.0,0.0,8.54696382335,2
1505973427567454099,998,1505973427567454099,odom,2,1,22.3060154797,114.180082995,10.597849654,2.753345572,0.0,0.0,0.0,2.2047094206,0.0,0.0,0.0,5.90088736618,2
1505973428567912101,999,1505973428567912101,odom,2,1,22.3059795043,114.180039315,10.691596684,2.71144831116,0.0,0.0,0.0,2.24268212361,0.0,0.0,0.0,5.38977710269,2
1505973429567066907,1000,1505973429567066907,odom,2,1,22.305944738,114.179992594,10.6863463279,2.66798644728,0.0,0.0,0.0,2.26488643052,0.0,0.0,0.0,5.09296392059,2
1505973430567550897,1001,1505973430567550897,odom,2,1,22.3059092074,114.179941253,10.7643418126,2.65753427862,0.0,0.0,0.0,2.29429037362,0.0,0.0,0.0,4.89122780018,2
1505973431567250967,1002,1505973431567250967,odom,2,1,22.3058710096,114.179885403,11.1653406098,2.74652538645,0.0,0.0,0.0,2.36905832412,0.0,0.0,0.0,4.93037049301,2
1505973432566966056,1003,1505973432566966056,odom,2,1,22.3058337774,114.179825404,11.5023528012,2.8421175649,0.0,0.0,0.0,2.45237614111,0.0,0.0,0.0,4.99243248657,2
1505973433566845893,1004,1505973433566845893,odom,2,1,22.3057984404,114.179761163,11.7428311184,2.93785622502,0.0,0.0,0.0,2.54151534089,0.0,0.0,0.0,5.06335658648,2
1505973434566746950,1005,1505973434566746950,odom,2,1,22.305763759,114.179693834,11.9575725766,3.03438484399,0.0,0.0,0.0,2.63337556618,0.0,0.0,0.0,5.08758687694,2
1505973435566368103,1006,1505973435566368103,odom,2,1,22.3057311048,114.17962368,11.8521098923,3.11265423866,0.0,0.0,0.0,2.72552793388,0.0,0.0,0.0,4.92693979624,2
1505973436567411899,1007,1505973436567411899,odom,2,1,22.3056997805,114.17954973,12.0089917565,3.21642662918,0.0,0.0,0.0,2.82576009587,0.0,0.0,0.0,4.83423396038,2
1505973437566674947,1008,1505973437566674947,odom,2,1,22.3056739432,114.179473622,11.9504077034,3.01402697416,0.0,0.0,0.0,2.7440738947,0.0,0.0,0.0,4.03507612661,2
1505973438567847967,1009,1505973438567847967,odom,2,1,22.3056516091,114.179391279,11.93829636,2.399658826,0.0,0.0,0.0,2.15659797165,0.0,0.0,0.0,3.89408120228,2
1505973439566865921,1010,1505973439566865921,odom,2,1,22.3056317809,114.179306463,11.8965182332,2.19369870689,0.0,0.0,0.0,1.94558491172,0.0,0.0,0.0,3.78681510898,2
1505973440567428112,1011,1505973440567428112,odom,2,1,22.3056138665,114.17922019,11.8778212126,2.11198881576,0.0,0.0,0.0,1.84475873852,0.0,0.0,0.0,3.7149259021,2
1505973441567408084,1012,1505973441567408084,odom,2,1,22.3056005316,114.179131168,11.8498686096,2.09264611485,0.0,0.0,0.0,1.81364963376,0.0,0.0,0.0,3.69198922159,2
1505973442566917896,1013,1505973442566917896,odom,2,1,22.3055886912,114.179045676,11.9148303391,2.06580752506,0.0,0.0,0.0,1.76574233012,0.0,0.0,0.0,3.63552576658,2
1505973443567578077,1014,1505973443567578077,odom,2,1,22.3055744599,114.178967335,11.9225911126,2.06094055603,0.0,0.0,0.0,1.74880484693,0.0,0.0,0.0,3.62065272989,2
1505973444567837953,1015,1505973444567837953,odom,2,1,22.305554195,114.178897284,11.859131068,2.03678978999,0.0,0.0,0.0,1.71078235941,0.0,0.0,0.0,3.5622159946,2
1505973445567677974,1016,1505973445567677974,odom,2,1,22.3055279118,114.178833138,11.5127898483,2.00559837318,0.0,0.0,0.0,1.67504889633,0.0,0.0,0.0,3.48998392484,2
1505973446566878080,1017,1505973446566878080,odom,2,1,22.3054939451,114.178774489,11.2706696764,1.9641616522,0.0,0.0,0.0,1.64086731667,0.0,0.0,0.0,3.40367306195,2
1505973447567600011,1018,1505973447567600011,odom,2,1,22.3054507577,114.178721201,11.0253129853,1.93171788696,0.0,0.0,0.0,1.6289117486,0.0,0.0,0.0,3.32394869907,2
1505973448567078113,1019,1505973448567078113,odom,2,1,22.3053948809,114.178676111,10.9232014986,1.79804728003,0.0,0.0,0.0,1.55478052491,0.0,0.0,0.0,3.24379145148,2
1505973449567645072,1020,1505973449567645072,odom,2,1,22.3053335232,114.178634483,10.8554650359,1.71638007237,0.0,0.0,0.0,1.50686107754,0.0,0.0,0.0,3.17849124256,2
1505973450567703962,1021,1505973450567703962,odom,2,1,22.3052668592,114.178595522,10.6522746496,1.65306818563,0.0,0.0,0.0,1.46747400897,0.0,0.0,0.0,3.11790754969,2
1505973451567173957,1022,1505973451567173957,odom,2,1,22.3051954874,114.178559494,10.4153994359,1.60401687756,0.0,0.0,0.0,1.4363358913,0.0,0.0,0.0,3.0597030381,2
1505973452567392110,1023,1505973452567392110,odom,2,1,22.3051188634,114.178527336,10.1253642598,1.56622972369,0.0,0.0,0.0,1.41123186042,0.0,0.0,0.0,3.00724755962,2
1505973453567573070,1024,1505973453567573070,odom,2,1,22.305037573,114.178500235,10.0055534337,1.54510829455,0.0,0.0,0.0,1.39231429114,0.0,0.0,0.0,2.96114536323,2
1505973454567047119,1025,1505973454567047119,odom,2,1,22.3049531963,114.178476897,9.89222842641,1.52614238379,0.0,0.0,0.0,1.37585638893,0.0,0.0,0.0,2.91787086062,2
1505973455567379951,1026,1505973455567379951,odom,2,1,22.3048675097,114.178453817,9.761854182,1.50891922177,0.0,0.0,0.0,1.36481931097,0.0,0.0,0.0,2.88147913514,2
1505973456567801952,1027,1505973456567801952,odom,2,1,22.3047795386,114.17843043,9.73565994669,1.50146491769,0.0,0.0,0.0,1.36319945041,0.0,0.0,0.0,2.85914942188,2
1505973457568208932,1028,1505973457568208932,odom,2,1,22.30469026,114.178406666,9.68956629094,1.49194547339,0.0,0.0,0.0,1.36035048421,0.0,0.0,0.0,2.73207450855,2
1505973458567970991,1029,1505973458567970991,odom,2,1,22.3045989699,114.178383133,9.55331859924,1.49666587492,0.0,0.0,0.0,1.36463392236,0.0,0.0,0.0,2.72818579713,2
1505973459567070960,1030,1505973459567070960,odom,2,1,22.3045058525,114.17836047,9.44823871646,1.50295382014,0.0,0.0,0.0,1.37059630735,0.0,0.0,0.0,2.72314941154,2
1505973460568032979,1031,1505973460568032979,odom,2,1,22.3044133124,114.178338836,9.37653729599,1.51115485468,0.0,0.0,0.0,1.37862054866,0.0,0.0,0.0,2.71841162013,2
1505973462100634098,1032,1505973462100634098,odom,2,1,22.3043326595,114.178311846,9.04466508236,1.54862012201,0.0,0.0,0.0,1.38947936167,0.0,0.0,0.0,2.59756861845,2
1505973463100017070,1033,1505973463100017070,odom,2,1,22.3042531418,114.178287998,8.9726621788,1.51895488551,0.0,0.0,0.0,1.38281213913,0.0,0.0,0.0,2.46507403033,2
1505973464099615097,1034,1505973464099615097,odom,2,1,22.3041772161,114.178265612,8.96272653621,1.50529093704,0.0,0.0,0.0,1.38031499018,0.0,0.0,0.0,2.40727065654,2
1505973465100377082,1035,1505973465100377082,odom,2,1,22.3041067171,114.178241187,8.86060825456,1.49239187117,0.0,0.0,0.0,1.37812217589,0.0,0.0,0.0,2.35350213247,2
1505973466099464893,1036,1505973466099464893,odom,2,1,22.3040405859,114.178212681,8.48621488083,1.48006053639,0.0,0.0,0.0,1.37593770556,0.0,0.0,0.0,2.30337498633,2
1505973467099642992,1037,1505973467099642992,odom,2,1,22.3039754481,114.178177523,8.14736232348,1.48017470484,0.0,0.0,0.0,1.37614344871,0.0,0.0,0.0,2.30380364242,2
1505973468099900960,1038,1505973468099900960,odom,2,1,22.3039094793,114.17813532,7.64869952016,1.45695912722,0.0,0.0,0.0,1.37152361521,0.0,0.0,0.0,2.21334275633,2
1505973469099862098,1039,1505973469099862098,odom,2,1,22.3038422194,114.178086741,7.28179844003,1.47356192995,0.0,0.0,0.0,1.38759539665,0.0,0.0,0.0,2.21411833556,2
1505973470099879980,1040,1505973470099879980,odom,2,1,22.3037765802,114.17803185,7.55752191786,1.61043756892,0.0,0.0,0.0,1.53023876492,0.0,0.0,0.0,2.13853536174,2
1505973471104695081,1041,1505973471104695081,odom,2,1,22.3037136672,114.177974061,7.28803523816,1.63322729598,0.0,0.0,0.0,1.55107829834,0.0,0.0,0.0,2.13950941184,2
1505973472100522994,1042,1505973472100522994,odom,2,1,22.3036536448,114.177921934,7.32649376523,1.42283365902,0.0,0.0,0.0,1.37136876066,0.0,0.0,0.0,2.08570769141,2
1505973473100255966,1043,1505973473100255966,odom,2,1,22.3036057981,114.177874652,7.1575879408,1.42355253467,0.0,0.0,0.0,1.37181334159,0.0,0.0,0.0,2.08625425682,2
1505973474100447893,1044,1505973474100447893,odom,2,1,22.3035660315,114.177835922,7.08035145234,1.4187412475,0.0,0.0,0.0,1.37330734523,0.0,0.0,0.0,2.06105278326,2
1505973475099733114,1045,1505973475099733114,odom,2,1,22.3035299885,114.177807488,7.0166150257,1.41940879488,0.0,0.0,0.0,1.37373487515,0.0,0.0,0.0,2.06157619369,2
1505973476099490880,1046,1505973476099490880,odom,2,1,22.3034978242,114.177787854,6.96184587106,1.41377632607,0.0,0.0,0.0,1.37094298663,0.0,0.0,0.0,2.03998526438,2
1505973477099992990,1047,1505973477099992990,odom,2,1,22.3034740987,114.177768309,6.90512842592,1.41436361328,0.0,0.0,0.0,1.37132975231,0.0,0.0,0.0,2.04051462128,2
1505973478099988937,1048,1505973478099988937,odom,2,1,22.3034567845,114.177750096,6.77687605005,1.39485617048,0.0,0.0,0.0,1.35495735157,0.0,0.0,0.0,2.01608655615,2
1505973479100351095,1049,1505973479100351095,odom,2,1,22.3034419861,114.177735159,6.76107924711,1.39526008732,0.0,0.0,0.0,1.35522120996,0.0,0.0,0.0,2.01653489536,2
1505973480099653959,1050,1505973480099653959,odom,2,1,22.3034304152,114.177723627,6.72889295407,1.38133290569,0.0,0.0,0.0,1.33919734158,0.0,0.0,0.0,1.990778051,2
1505973481100199937,1051,1505973481100199937,odom,2,1,22.3034219905,114.177714439,6.6875668345,1.38156080292,0.0,0.0,0.0,1.33938555524,0.0,0.0,0.0,1.9911699218,2
1505973482100831031,1052,1505973482100831031,odom,2,1,22.3034161571,114.177708735,6.61800193973,1.37241764275,0.0,0.0,0.0,1.32873507942,0.0,0.0,0.0,1.9663588514,2
1505973483101326942,1053,1505973483101326942,odom,2,1,22.3034148653,114.177707374,6.63196427189,1.37250933157,0.0,0.0,0.0,1.32884232389,0.0,0.0,0.0,1.96665125484,2
1505973484099770069,1054,1505973484099770069,odom,2,1,22.3034149095,114.177707263,6.58380809147,1.35846077728,0.0,0.0,0.0,1.31125046899,0.0,0.0,0.0,1.93520003477,2
1505973485100557088,1055,1505973485100557088,odom,2,1,22.3034149408,114.177707253,6.57641563751,1.35853188892,0.0,0.0,0.0,1.31130161028,0.0,0.0,0.0,1.93541679782,2
1505973486100219011,1056,1505973486100219011,odom,2,1,22.3034146592,114.177707483,6.58838260453,1.34256297339,0.0,0.0,0.0,1.2952350101,0.0,0.0,0.0,1.90461726584,2
1505973487100037097,1057,1505973487100037097,odom,2,1,22.3034146261,114.177707476,6.59913364053,1.34263225435,0.0,0.0,0.0,1.29527998802,0.0,0.0,0.0,1.90482462229,2
1505973488100075960,1058,1505973488100075960,odom,2,1,22.3034142688,114.177707837,6.58092876896,1.32855267116,0.0,0.0,0.0,1.28162741491,0.0,0.0,0.0,1.87523508989,2
1505973489099685907,1059,1505973489099685907,odom,2,1,22.3034134321,114.177706954,6.59007121716,1.32860901579,0.0,0.0,0.0,1.28166659864,0.0,0.0,0.0,1.87544288921,2
1505973490100317955,1060,1505973490100317955,odom,2,1,22.3034095587,114.177701702,6.60667270515,1.30610581967,0.0,0.0,0.0,1.26433744154,0.0,0.0,0.0,1.84432161635,2
1505973491100265979,1061,1505973491100265979,odom,2,1,22.3034005533,114.177691589,6.5377199864,1.30617764439,0.0,0.0,0.0,1.2643850554,0.0,0.0,0.0,1.84453239141,2
1505973492101082086,1062,1505973492101082086,odom,2,1,22.3033857934,114.177674541,6.42512482777,1.29340000765,0.0,0.0,0.0,1.25382372681,0.0,0.0,0.0,1.81535098024,2
1505973493100874900,1063,1505973493100874900,odom,2,1,22.3033647921,114.177651552,6.37691436149,1.29348620368,0.0,0.0,0.0,1.25387705756,0.0,0.0,0.0,1.81556564535,2
1505973494099641084,1064,1505973494099641084,odom,2,1,22.3033399159,114.177624724,6.27764624078,1.28320184842,0.0,0.0,0.0,1.24496585119,0.0,0.0,0.0,1.78644788806,2
1505973495101052999,1065,1505973495101052999,odom,2,1,22.3033120951,114.177595538,6.13579964079,1.28100537495,0.0,0.0,0.0,1.24182138457,0.0,0.0,0.0,1.77429821851,2
1505973496099884033,1066,1505973496099884033,odom,2,1,22.303281034,114.177563591,6.29384379555,1.28482434372,0.0,0.0,0.0,1.2434133135,0.0,0.0,0.0,1.7869417971,2
1505973497100466012,1067,1505973497100466012,odom,2,1,22.3032439303,114.177534111,5.97894863319,1.27362596581,0.0,0.0,0.0,1.23890022742,0.0,0.0,0.0,1.75859324534,2
1505973498099680900,1068,1505973498099680900,odom,2,1,22.3032046828,114.177507797,5.78815512173,1.27378215033,0.0,0.0,0.0,1.23916439528,0.0,0.0,0.0,1.75905932212,2
1505973499099724054,1069,1505973499099724054,odom,2,1,22.3031619633,114.177488197,5.38102965709,1.26897081959,0.0,0.0,0.0,1.23846781605,0.0,0.0,0.0,1.73425150043,2
1505973500100195884,1070,1505973500100195884,odom,2,1,22.3031159534,114.17747684,5.30583629012,1.2691263546,0.0,0.0,0.0,1.23872736247,0.0,0.0,0.0,1.73471800622,2
1505973501099884986,1071,1505973501099884986,odom,2,1,22.3030674701,114.177472948,4.99468576536,1.26047596561,0.0,0.0,0.0,1.23525889505,0.0,0.0,0.0,1.71893025451,2
1505973502099667072,1072,1505973502099667072,odom,2,1,22.3030164523,114.17747865,4.97344596591,1.26064215205,0.0,0.0,0.0,1.23552813118,0.0,0.0,0.0,1.72251709567,2
1505973503100737094,1073,1505973503100737094,odom,2,1,22.3029654704,114.177497238,4.75225748215,1.24809824692,0.0,0.0,0.0,1.22834119776,0.0,0.0,0.0,1.69774036719,2
1505973504100083112,1074,1505973504100083112,odom,2,1,22.3029188704,114.17752808,4.73872197885,1.24822863563,0.0,0.0,0.0,1.22856390307,0.0,0.0,0.0,1.69815348244,2
1505973505100109100,1075,1505973505100109100,odom,2,1,22.3028799673,114.177569425,4.51567033771,1.23789045388,0.0,0.0,0.0,1.22373982939,0.0,0.0,0.0,1.67430186418,2
1505973506100214958,1076,1505973506100214958,odom,2,1,22.3028477159,114.177617898,4.67852581292,1.2381000564,0.0,0.0,0.0,1.22415184985,0.0,0.0,0.0,1.6749136074,2
1505973507100285053,1077,1505973507100285053,odom,2,1,22.3028214358,114.177673944,4.4713613838,1.22989305629,0.0,0.0,0.0,1.22056553929,0.0,0.0,0.0,1.65680834738,2
1505973508099764108,1078,1505973508099764108,odom,2,1,22.302796996,114.177735348,4.50620558206,1.23054780067,0.0,0.0,0.0,1.23165505612,0.0,0.0,0.0,1.66464154809,2
1505973509100003004,1079,1505973509100003004,odom,2,1,22.3027696247,114.177801686,4.47413318139,1.23100330812,0.0,0.0,0.0,1.23848441987,0.0,0.0,0.0,1.69894674338,2
1505973510100372076,1080,1505973510100372076,odom,2,1,22.302738956,114.177872299,4.57799974922,1.23134464237,0.0,0.0,0.0,1.24258001545,0.0,0.0,0.0,1.77637630499,2
1505973511100668907,1081,1505973511100668907,odom,2,1,22.3027050255,114.177945738,4.66065992601,1.23180792586,0.0,0.0,0.0,1.25160566153,0.0,0.0,0.0,1.87066638859,2
1505973512100516080,1082,1505973512100516080,odom,2,1,22.3026710052,114.178022238,4.68167145364,1.23233092556,0.0,0.0,0.0,1.30464802778,0.0,0.0,0.0,2.98147516699,2
1505973512567270040,1083,1505973512567270040,odom,2,1,22.3026329876,114.17811206,5.64719642419,1.40518387438,0.0,0.0,0.0,1.36767885105,0.0,0.0,0.0,1.89632159126,2
1505973513567946910,1084,1505973513567946910,odom,2,1,22.302604806,114.178188465,5.89854127727,1.41459304431,0.0,0.0,0.0,1.37101772545,0.0,0.0,0.0,1.90278100266,2
1505973514567580938,1085,1505973514567580938,odom,2,1,22.302578813,114.178263632,6.10548708402,1.43517112593,0.0,0.0,0.0,1.38865359149,0.0,0.0,0.0,1.90975658978,2
1505973515567255020,1086,1505973515567255020,odom,2,1,22.3025534033,114.178339274,6.37385890353,1.45277474482,0.0,0.0,0.0,1.40549098922,0.0,0.0,0.0,1.90683372476,2
1505973516568471908,1087,1505973516568471908,odom,2,1,22.3025297012,114.178414778,6.73557545338,1.47525572929,0.0,0.0,0.0,1.42507951172,0.0,0.0,0.0,1.91568383193,2
1505973517568219900,1088,1505973517568219900,odom,2,1,22.302508176,114.178488996,7.13507376891,1.48999370625,0.0,0.0,0.0,1.43909395922,0.0,0.0,0.0,1.92450894021,2
1505973518568440914,1089,1505973518568440914,odom,2,1,22.3024887251,114.178564057,7.48763440549,1.49388146639,0.0,0.0,0.0,1.43206956256,0.0,0.0,0.0,1.93421934751,2
1505973519567807912,1090,1505973519567807912,odom,2,1,22.3024718187,114.178638508,7.82734064758,1.48160411468,0.0,0.0,0.0,1.40959575794,0.0,0.0,0.0,1.94743609209,2
1505973520567946910,1091,1505973520567946910,odom,2,1,22.3024559952,114.17871241,8.088819406,1.47766674143,0.0,0.0,0.0,1.39178796731,0.0,0.0,0.0,1.96185261933,2
1505973521568195104,1092,1505973521568195104,odom,2,1,22.3024426852,114.178786607,8.2145882817,1.4804112028,0.0,0.0,0.0,1.37932902464,0.0,0.0,0.0,1.97704962626,2
1505973522568155050,1093,1505973522568155050,odom,2,1,22.3024342466,114.178862401,8.19393852539,1.47067236257,0.0,0.0,0.0,1.36338382739,0.0,0.0,0.0,1.98764906237,2
1505973523567660093,1094,1505973523567660093,odom,2,1,22.3024275098,114.178941126,8.14550959505,1.47932174251,0.0,0.0,0.0,1.36185012104,0.0,0.0,0.0,2.00569101378,2
1505973524567359924,1095,1505973524567359924,odom,2,1,22.3024221351,114.179023406,7.9612502614,1.50272868335,0.0,0.0,0.0,1.37048090862,0.0,0.0,0.0,2.02639582653,2
1505973525567239046,1096,1505973525567239046,odom,2,1,22.3024186609,114.179109788,7.67837767862,1.52878346634,0.0,0.0,0.0,1.38199946679,0.0,0.0,0.0,2.04907753437,2
1505973526567576885,1097,1505973526567576885,odom,2,1,22.3024190441,114.17919769,7.27442675736,1.55788896164,0.0,0.0,0.0,1.39470588426,0.0,0.0,0.0,2.07343567635,2
1505973527567622900,1098,1505973527567622900,odom,2,1,22.3024235487,114.179279747,6.78284740355,1.58994104026,0.0,0.0,0.0,1.40840021965,0.0,0.0,0.0,2.09924505784,2
1505973528567570924,1099,1505973528567570924,odom,2,1,22.3024329783,114.179357945,6.30734627135,1.62465190439,0.0,0.0,0.0,1.42313601764,0.0,0.0,0.0,2.12581743268,2
1505973529567589044,1100,1505973529567589044,odom,2,1,22.3024524768,114.179435215,5.95586357359,1.66186764891,0.0,0.0,0.0,1.43763986873,0.0,0.0,0.0,2.15144492651,2
1505973530567548990,1101,1505973530567548990,odom,2,1,22.3024832935,114.179510827,5.49004130531,1.67609296077,0.0,0.0,0.0,1.44167707556,0.0,0.0,0.0,2.17149223702,2
1505973531567220926,1102,1505973531567220926,odom,2,1,22.3025198383,114.179579505,5.23135582171,1.71879617918,0.0,0.0,0.0,1.45892524376,0.0,0.0,0.0,2.20053084751,2
1505973532567332029,1103,1505973532567332029,odom,2,1,22.302564069,114.179643626,5.09238383826,1.76570162378,0.0,0.0,0.0,1.47785991465,0.0,0.0,0.0,2.23096278004,2
1505973533567177057,1104,1505973533567177057,odom,2,1,22.3026159581,114.179702416,5.02473912667,1.8172142068,0.0,0.0,0.0,1.49882768264,0.0,0.0,0.0,2.26291569875,2
1505973534567473888,1105,1505973534567473888,odom,2,1,22.3026761257,114.179757047,4.86768388562,1.80638471966,0.0,0.0,0.0,1.50608849626,0.0,0.0,0.0,2.28589144247,2
1505973535567789077,1106,1505973535567789077,odom,2,1,22.3027408488,114.179808376,4.80043842178,1.76053131914,0.0,0.0,0.0,1.50705781824,0.0,0.0,0.0,2.30691111705,2
1505973536568061113,1107,1505973536568061113,odom,2,1,22.3028084881,114.179856306,4.79774984717,1.70376175053,0.0,0.0,0.0,1.50836916552,0.0,0.0,0.0,2.33030832876,2
1505973537568177938,1108,1505973537568177938,odom,2,1,22.3028791799,114.179902287,4.82325147465,1.65852433593,0.0,0.0,0.0,1.5154552945,0.0,0.0,0.0,2.35871558101,2
1505973538568608045,1109,1505973538568608045,odom,2,1,22.3029501598,114.179948812,4.88694217894,1.62617992001,0.0,0.0,0.0,1.52496993635,0.0,0.0,0.0,2.38952483428,2
1505973539567348003,1110,1505973539567348003,odom,2,1,22.3030224124,114.179997769,4.93009174708,1.60824427733,0.0,0.0,0.0,1.53554850916,0.0,0.0,0.0,2.42439993088,2
1505973540567933082,1111,1505973540567933082,odom,2,1,22.3030959088,114.180048628,4.98189962097,1.62273106502,0.0,0.0,0.0,1.55839397794,0.0,0.0,0.0,2.46739553693,2
1505973541568054914,1112,1505973541568054914,odom,2,1,22.3031663258,114.180099162,5.03337460477,1.64312356361,0.0,0.0,0.0,1.58840651939,0.0,0.0,0.0,2.51312853918,2
1505973542568325996,1113,1505973542568325996,odom,2,1,22.3032337432,114.180150203,5.04112733155,1.66447436612,0.0,0.0,0.0,1.6166707461,0.0,0.0,0.0,2.55946280478,2
1505973543567610979,1114,1505973543567610979,odom,2,1,22.3032952618,114.180200003,5.04712100141,1.65322848451,0.0,0.0,0.0,1.64430777413,0.0,0.0,0.0,2.60676721049,2
1505973544568471908,1115,1505973544568471908,odom,2,1,22.3033475795,114.180247797,5.11009855103,1.64283073249,0.0,0.0,0.0,1.65576801827,0.0,0.0,0.0,2.65223973219,2
1505973545567823886,1116,1505973545567823886,odom,2,1,22.3033872581,114.180286348,5.07300796546,1.60861939901,0.0,0.0,0.0,1.66588737941,0.0,0.0,0.0,2.66320928928,2
1505973546568084955,1117,1505973546568084955,odom,2,1,22.3034152807,114.180314409,5.02037721872,1.59564779361,0.0,0.0,0.0,1.66275531271,0.0,0.0,0.0,2.70322912543,2
1505973547568001985,1118,1505973547568001985,odom,2,1,22.3034350666,114.180334487,4.97192926332,1.58332821665,0.0,0.0,0.0,1.65983958085,0.0,0.0,0.0,2.74256942273,2
1505973548567783117,1119,1505973548567783117,odom,2,1,22.3034506031,114.18035155,4.99212149158,1.57067936789,0.0,0.0,0.0,1.65220917482,0.0,0.0,0.0,2.77964745164,2
1505973549567945957,1120,1505973549567945957,odom,2,1,22.3034614745,114.180363352,4.96955863573,1.55716471482,0.0,0.0,0.0,1.65143330141,0.0,0.0,0.0,2.81860705014,2
1505973550567725896,1121,1505973550567725896,odom,2,1,22.3034656743,114.180368841,4.97420042846,1.56499324521,0.0,0.0,0.0,1.6587454013,0.0,0.0,0.0,2.86489465183,2
1505973551568644046,1122,1505973551568644046,odom,2,1,22.3034652962,114.180369154,4.96281013265,1.57488911125,0.0,0.0,0.0,1.67103488166,0.0,0.0,0.0,2.91407765242,2
1505973552567512989,1123,1505973552567512989,odom,2,1,22.3034648457,114.18037053,5.02509184647,1.58069490896,0.0,0.0,0.0,1.67120078931,0.0,0.0,0.0,2.95717152184,2
1505973553567444086,1124,1505973553567444086,odom,2,1,22.3034642433,114.18037444,5.23390961438,1.57655171431,0.0,0.0,0.0,1.63746192997,0.0,0.0,0.0,2.7841675722,2
1505973554568772077,1125,1505973554568772077,odom,2,1,22.3034647396,114.180382868,5.54865299538,1.55255546153,0.0,0.0,0.0,1.54814596805,0.0,0.0,0.0,2.39752605305,2
1505973555567847013,1126,1505973555567847013,odom,2,1,22.3034654618,114.180386896,5.63876123261,1.53930905949,0.0,0.0,0.0,1.50966967844,0.0,0.0,0.0,2.20790762039,2
1505973556567959070,1127,1505973556567959070,odom,2,1,22.3034659407,114.18038822,5.66029610485,1.53646658251,0.0,0.0,0.0,1.5025071186,0.0,0.0,0.0,2.13947458513,2
1505973557567271947,1128,1505973557567271947,odom,2,1,22.303466775,114.180385212,5.65515186079,1.52460846331,0.0,0.0,0.0,1.4825764828,0.0,0.0,0.0,2.13629872378,2
1505973558568222999,1129,1505973558568222999,odom,2,1,22.3034674028,114.180382921,5.41113416012,1.51268417632,0.0,0.0,0.0,1.45888058053,0.0,0.0,0.0,2.12526489259,2
1505973559567820072,1130,1505973559567820072,odom,2,1,22.3034673391,114.180382152,5.57245460059,1.50608681622,0.0,0.0,0.0,1.44545160515,0.0,0.0,0.0,2.11058497839,2
1505973560568888902,1131,1505973560568888902,odom,2,1,22.3034668351,114.180382267,5.82157123461,1.50273234636,0.0,0.0,0.0,1.43955915764,0.0,0.0,0.0,2.09713078169,2
1505973561567578077,1132,1505973561567578077,odom,2,1,22.3034670118,114.180382927,5.93633986916,1.50091038566,0.0,0.0,0.0,1.43710190294,0.0,0.0,0.0,2.08702462109,2
1505973562568034887,1133,1505973562568034887,odom,2,1,22.303467393,114.180383025,5.69691286236,1.49964083817,0.0,0.0,0.0,1.43606258843,0.0,0.0,0.0,2.07984291052,2
1505973563568511962,1134,1505973563568511962,odom,2,1,22.3034671809,114.180383142,5.62695431523,1.49896559318,0.0,0.0,0.0,1.43571803749,0.0,0.0,0.0,2.07476748698,2
1505973564568341016,1135,1505973564568341016,odom,2,1,22.3034670457,114.180383192,5.61756949965,1.49850243246,0.0,0.0,0.0,1.43559057223,0.0,0.0,0.0,2.07124008324,2
1505973565567812919,1136,1505973565567812919,odom,2,1,22.3034669263,114.180383308,5.65592890978,1.49812433196,0.0,0.0,0.0,1.43547539464,0.0,0.0,0.0,2.06874098225,2
1505973566568186998,1137,1505973566568186998,odom,2,1,22.3034670334,114.180383446,5.65379559342,1.49776538574,0.0,0.0,0.0,1.43537066342,0.0,0.0,0.0,2.06693186944,2
1505973567568510055,1138,1505973567568510055,odom,2,1,22.3034669677,114.180383645,5.58217678219,1.49735833344,0.0,0.0,0.0,1.43524073853,0.0,0.0,0.0,2.06563564052,2
1505973568567923069,1139,1505973568567923069,odom,2,1,22.3034670184,114.18038364,5.52694622241,1.49711083984,0.0,0.0,0.0,1.43517213392,0.0,0.0,0.0,2.06473514472,2
1505973569568609952,1140,1505973569568609952,odom,2,1,22.303466951,114.180383708,5.48875787947,1.4968242413,0.0,0.0,0.0,1.43506635761,0.0,0.0,0.0,2.06409358696,2
1505973570567979097,1141,1505973570567979097,odom,2,1,22.3034667927,114.180383827,5.46418799181,1.49657584669,0.0,0.0,0.0,1.43496367193,0.0,0.0,0.0,2.06363484448,2
1505973571567989110,1142,1505973571567989110,odom,2,1,22.3034666734,114.18038401,5.49234560225,1.49635852749,0.0,0.0,0.0,1.43485103442,0.0,0.0,0.0,2.06331173951,2
1505973572568712949,1143,1505973572568712949,odom,2,1,22.3034664667,114.180384054,5.53591854312,1.49616182364,0.0,0.0,0.0,1.43474937184,0.0,0.0,0.0,2.06307153226,2
1505973573567656993,1144,1505973573567656993,odom,2,1,22.303466343,114.180384253,5.5446144063,1.49598331658,0.0,0.0,0.0,1.43467243318,0.0,0.0,0.0,2.06289288666,2
1505973574569339990,1145,1505973574569339990,odom,2,1,22.3034662674,114.180384339,5.54322720785,1.49581984801,0.0,0.0,0.0,1.43460960497,0.0,0.0,0.0,2.0627626624,2
1505973575568150043,1146,1505973575568150043,odom,2,1,22.3034662249,114.180384314,5.55103076994,1.49572956168,0.0,0.0,0.0,1.43458992727,0.0,0.0,0.0,2.06268579304,2
1505973576568280935,1147,1505973576568280935,odom,2,1,22.3034661795,114.180384341,5.55896085035,1.49569328802,0.0,0.0,0.0,1.43456876811,0.0,0.0,0.0,2.06263227593,2
1505973577568181037,1148,1505973577568181037,odom,2,1,22.303466057,114.180384262,5.56505736895,1.49561431704,0.0,0.0,0.0,1.43451797555,0.0,0.0,0.0,2.0625969963,2
1505973578568291902,1149,1505973578568291902,odom,2,1,22.3034660518,114.180384262,5.569819469,1.49554573061,0.0,0.0,0.0,1.43443530073,0.0,0.0,0.0,2.06257057958,2
1505973579567836999,1150,1505973579567836999,odom,2,1,22.3034677478,114.180385931,5.56031141244,1.49543896448,0.0,0.0,0.0,1.43431310482,0.0,0.0,0.0,2.06254433363,2
1505973580568147897,1151,1505973580568147897,odom,2,1,22.3034755441,114.180393259,5.54718466662,1.49541869955,0.0,0.0,0.0,1.43389723078,0.0,0.0,0.0,2.06237612887,2
1505973581568236112,1152,1505973581568236112,odom,2,1,22.3034926031,114.180409832,5.54397716653,1.49552843003,0.0,0.0,0.0,1.43347058016,0.0,0.0,0.0,2.0625937581,2
1505973582568177938,1153,1505973582568177938,odom,2,1,22.3035162695,114.180433739,5.53604573198,1.49674898272,0.0,0.0,0.0,1.43394669801,0.0,0.0,0.0,2.06434465947,2
1505973583567606925,1154,1505973583567606925,odom,2,1,22.3035452731,114.180463391,5.51736612152,1.49882223336,0.0,0.0,0.0,1.43525378386,0.0,0.0,0.0,2.06739424892,2
1505973584567629098,1155,1505973584567629098,odom,2,1,22.3035753239,114.180494551,5.62182468921,1.50177182487,0.0,0.0,0.0,1.43738621169,0.0,0.0,0.0,2.07160191686,2
1505973585568425893,1156,1505973585568425893,odom,2,1,22.3036065036,114.180526934,5.71578601375,1.50512408843,0.0,0.0,0.0,1.43986786643,0.0,0.0,0.0,2.07647089985,2
1505973586568902969,1157,1505973586568902969,odom,2,1,22.3036396495,114.180560715,5.81492618006,1.50897476834,0.0,0.0,0.0,1.44271026087,0.0,0.0,0.0,2.08178132403,2
1505973587568805932,1158,1505973587568805932,odom,2,1,22.3036749018,114.180593603,5.94972233195,1.51318923016,0.0,0.0,0.0,1.44604658386,0.0,0.0,0.0,2.08768124142,2
1505973588568346977,1159,1505973588568346977,odom,2,1,22.3037085534,114.180622644,6.08099156525,1.49413916712,0.0,0.0,0.0,1.44425343165,0.0,0.0,0.0,2.09227144273,2
1505973589567821025,1160,1505973589567821025,odom,2,1,22.3037403369,114.180648333,6.21047844738,1.4935924624,0.0,0.0,0.0,1.44712038687,0.0,0.0,0.0,2.0982154799,2
1505973590567811012,1161,1505973590567811012,odom,2,1,22.3037702718,114.180671935,6.32446977962,1.4763189563,0.0,0.0,0.0,1.44563124965,0.0,0.0,0.0,2.10307159389,2
1505973591568126916,1162,1505973591568126916,odom,2,1,22.3037993119,114.180692939,6.40170642734,1.42290232048,0.0,0.0,0.0,1.42587993187,0.0,0.0,0.0,2.04480004353,2
1505973592568708896,1163,1505973592568708896,odom,2,1,22.3038264488,114.180711074,6.50500111561,1.40847778607,0.0,0.0,0.0,1.42414785453,0.0,0.0,0.0,2.04936488109,2
1505973593567951917,1164,1505973593567951917,odom,2,1,22.3038502768,114.180725766,6.60121176392,1.3960244083,0.0,0.0,0.0,1.41629384009,0.0,0.0,0.0,2.05152762316,2
1505973594569267988,1165,1505973594569267988,odom,2,1,22.3038734752,114.180738543,6.70987177175,1.38455869514,0.0,0.0,0.0,1.40821598015,0.0,0.0,0.0,2.05397911406,2
1505973595568799018,1166,1505973595568799018,odom,2,1,22.3039021966,114.180753867,6.8346083397,1.37321080908,0.0,0.0,0.0,1.40627901273,0.0,0.0,0.0,2.05800812667,2
1505973596568077087,1167,1505973596568077087,odom,2,1,22.3039336525,114.180769457,6.97337962035,1.36366318615,0.0,0.0,0.0,1.39867155349,0.0,0.0,0.0,2.06073433951,2
1505973597568027019,1168,1505973597568027019,odom,2,1,22.3039637197,114.180783359,7.08959262818,1.35407092193,0.0,0.0,0.0,1.39286371707,0.0,0.0,0.0,2.06514549822,2
1505973598569113969,1169,1505973598569113969,odom,2,1,22.3039940565,114.180797743,7.20204685442,1.34513041847,0.0,0.0,0.0,1.39269488771,0.0,0.0,0.0,2.07071250824,2
1505973599568466901,1170,1505973599568466901,odom,2,1,22.3040264573,114.180813054,7.3229973549,1.33710708095,0.0,0.0,0.0,1.39258712152,0.0,0.0,0.0,2.07650950525,2
1505973600569092988,1171,1505973600569092988,odom,2,1,22.3040611457,114.180829143,7.41008204035,1.33007423813,0.0,0.0,0.0,1.39405582934,0.0,0.0,0.0,2.08335862655,2
1505973601568368911,1172,1505973601568368911,odom,2,1,22.3040978004,114.180846188,7.4984751204,1.29788988031,0.0,0.0,0.0,1.37361234534,0.0,0.0,0.0,2.02168318382,2
1505973602569139957,1173,1505973602569139957,odom,2,1,22.3041365423,114.180863549,7.6207828261,1.29357705506,0.0,0.0,0.0,1.37066066419,0.0,0.0,0.0,2.02786229622,2
1505973603569282054,1174,1505973603569282054,odom,2,1,22.3041774498,114.180881336,7.72342286725,1.28955903856,0.0,0.0,0.0,1.36678051311,0.0,0.0,0.0,2.0346022359,2
1505973604568408966,1175,1505973604568408966,odom,2,1,22.3042206837,114.180900966,7.8278973503,1.28512564735,0.0,0.0,0.0,1.35050162196,0.0,0.0,0.0,2.04092454576,2
1505973605568377017,1176,1505973605568377017,odom,2,1,22.3042660355,114.180920367,7.93096168619,1.28113999541,0.0,0.0,0.0,1.34024780831,0.0,0.0,0.0,2.04787609296,2
1505973606569956064,1177,1505973606569956064,odom,2,1,22.3043128792,114.180940751,8.00681906659,1.27785508885,0.0,0.0,0.0,1.33723138191,0.0,0.0,0.0,2.05644288014,2
1505973607568764925,1178,1505973607568764925,odom,2,1,22.3043613288,114.18096243,8.12131710071,1.27505175443,0.0,0.0,0.0,1.32972314286,0.0,0.0,0.0,2.06570476814,2
1505973608568339109,1179,1505973608568339109,odom,2,1,22.3044122608,114.180984367,8.25142042059,1.27279419025,0.0,0.0,0.0,1.33042754231,0.0,0.0,0.0,2.07618678625,2
1505973609569006919,1180,1505973609569006919,odom,2,1,22.304462782,114.181006418,8.36634227261,1.27075076657,0.0,0.0,0.0,1.33268062175,0.0,0.0,0.0,2.08867078762,2
1505973610568391084,1181,1505973610568391084,odom,2,1,22.3045065886,114.181025552,8.47555128764,1.26789777286,0.0,0.0,0.0,1.3327661593,0.0,0.0,0.0,2.10046153643,2
1505973611568758010,1182,1505973611568758010,odom,2,1,22.3045433779,114.181041611,8.56403149944,1.25013019049,0.0,0.0,0.0,1.31076640497,0.0,0.0,0.0,2.03564635045,2
1505973612568798065,1183,1505973612568798065,odom,2,1,22.3045723915,114.181054325,8.61350497231,1.24846062042,0.0,0.0,0.0,1.30979975995,0.0,0.0,0.0,2.04547278781,2
1505973613568895101,1184,1505973613568895101,odom,2,1,22.3045967416,114.181065164,8.65353482775,1.24677635883,0.0,0.0,0.0,1.30849012326,0.0,0.0,0.0,2.0547638769,2
1505973614568039894,1185,1505973614568039894,odom,2,1,22.3046231905,114.18107633,8.73647227697,1.24479553417,0.0,0.0,0.0,1.30448175299,0.0,0.0,0.0,2.06373118899,2
1505973615568064928,1186,1505973615568064928,odom,2,1,22.3046541607,114.181089532,8.82474812772,1.24287369742,0.0,0.0,0.0,1.30064755821,0.0,0.0,0.0,2.07275835955,2
1505973616568567037,1187,1505973616568567037,odom,2,1,22.3046832364,114.181102342,8.8808958577,1.24128404913,0.0,0.0,0.0,1.2971972147,0.0,0.0,0.0,2.08293604839,2
1505973617568624019,1188,1505973617568624019,odom,2,1,22.304716439,114.181116675,8.91326204594,1.23985988079,0.0,0.0,0.0,1.29419231351,0.0,0.0,0.0,2.09356068639,2
1505973618568504095,1189,1505973618568504095,odom,2,1,22.3047567773,114.181133499,8.95078607462,1.23855531478,0.0,0.0,0.0,1.29152705129,0.0,0.0,0.0,2.10445600085,2
1505973619568181037,1190,1505973619568181037,odom,2,1,22.3048036022,114.181153636,9.00516850874,1.23742467825,0.0,0.0,0.0,1.28905353075,0.0,0.0,0.0,2.11651790825,2
1505973620568969011,1191,1505973620568969011,odom,2,1,22.3048550419,114.181176112,9.05610880721,1.23645738253,0.0,0.0,0.0,1.28695175521,0.0,0.0,0.0,2.12965580266,2
1505973621568164110,1192,1505973621568164110,odom,2,1,22.3049056386,114.181197583,8.92395448778,1.23112367099,0.0,0.0,0.0,1.2813016804,0.0,0.0,0.0,2.03877062308,2
1505973622568643093,1193,1505973622568643093,odom,2,1,22.3049544105,114.181219019,9.0042952681,1.23340612731,0.0,0.0,0.0,1.28339287647,0.0,0.0,0.0,2.05535616983,2
1505973623567737102,1194,1505973623567737102,odom,2,1,22.3049843759,114.181232295,9.04264147021,1.2362505608,0.0,0.0,0.0,1.2872567487,0.0,0.0,0.0,2.07380269153,2
1505973624569142103,1195,1505973624569142103,odom,2,1,22.3050049072,114.181241618,9.08486096561,1.23944946079,0.0,0.0,0.0,1.29086092717,0.0,0.0,0.0,2.09239142733,2
1505973625568382978,1196,1505973625568382978,odom,2,1,22.3050227186,114.181249461,9.11252848525,1.24090468694,0.0,0.0,0.0,1.29027230666,0.0,0.0,0.0,2.10733167528,2
1505973626569341897,1197,1505973626569341897,odom,2,1,22.3050439022,114.181257742,9.12824818771,1.24108608538,0.0,0.0,0.0,1.28888692706,0.0,0.0,0.0,2.12073110137,2
1505973627568521022,1198,1505973627568521022,odom,2,1,22.3050743537,114.181269849,9.14026859961,1.24028460506,0.0,0.0,0.0,1.28732588813,0.0,0.0,0.0,2.13406389606,2
1505973628568459033,1199,1505973628568459033,odom,2,1,22.3051110287,114.181284786,9.19203998242,1.23932188363,0.0,0.0,0.0,1.28572028621,0.0,0.0,0.0,2.14852325741,2
1505973629568376064,1200,1505973629568376064,odom,2,1,22.305146567,114.181299537,9.21871790849,1.23859497267,0.0,0.0,0.0,1.28427031106,0.0,0.0,0.0,2.16430526577,2
1505973630568454027,1201,1505973630568454027,odom,2,1,22.3051842716,114.181314895,9.3107905155,1.23801205278,0.0,0.0,0.0,1.28299632489,0.0,0.0,0.0,2.18071920969,2
1505973631568563938,1202,1505973631568563938,odom,2,1,22.3052270185,114.181332073,9.3366642287,1.22850302052,0.0,0.0,0.0,1.26849610088,0.0,0.0,0.0,2.1093933131,2
1505973632569061040,1203,1505973632569061040,odom,2,1,22.3052758646,114.181348903,9.44650047459,1.22818951938,0.0,0.0,0.0,1.26994676123,0.0,0.0,0.0,2.12725108837,2
1505973633568159103,1204,1505973633568159103,odom,2,1,22.305327463,114.18136475,9.69066322502,1.22797596321,0.0,0.0,0.0,1.27156116476,0.0,0.0,0.0,2.14636059169,2
1505973634568111896,1205,1505973634568111896,odom,2,1,22.3053802514,114.181377741,9.96933360305,1.22967366629,0.0,0.0,0.0,1.27438075431,0.0,0.0,0.0,2.16814433348,2
1505973635568685054,1206,1505973635568685054,odom,2,1,22.3054302461,114.181387242,10.2182880947,1.23186266131,0.0,0.0,0.0,1.27779366414,0.0,0.0,0.0,2.19192212913,2
1505973636568128108,1207,1505973636568128108,odom,2,1,22.3054784631,114.181393713,10.5093951812,1.23414449914,0.0,0.0,0.0,1.28147077141,0.0,0.0,0.0,2.21687841686,2
1505973637568778991,1208,1505973637568778991,odom,2,1,22.3055241682,114.181396332,10.850610177,1.23750407628,0.0,0.0,0.0,1.28605476861,0.0,0.0,0.0,2.24615013457,2
1505973638569433927,1209,1505973638569433927,odom,2,1,22.3055700256,114.181395654,11.1697697574,1.24121804916,0.0,0.0,0.0,1.29121931226,0.0,0.0,0.0,2.27712301146,2
1505973639568335056,1210,1505973639568335056,odom,2,1,22.3056173474,114.181390776,11.4706557365,1.24535283491,0.0,0.0,0.0,1.29801756069,0.0,0.0,0.0,2.30974450241,2
1505973640568366050,1211,1505973640568366050,odom,2,1,22.3056648733,114.181380394,11.7478681793,1.24949994915,0.0,0.0,0.0,1.30552583549,0.0,0.0,0.0,2.34380668633,2
1505973641568428993,1212,1505973641568428993,odom,2,1,22.3057156759,114.18136548,12.0610332834,1.25181181974,0.0,0.0,0.0,1.31267808143,0.0,0.0,0.0,2.3781300684,2
1505973642568922996,1213,1505973642568922996,odom,2,1,22.3057701812,114.181345971,12.3758681994,1.2555831796,0.0,0.0,0.0,1.32242584718,0.0,0.0,0.0,2.4160091578,2
1505973643568574905,1214,1505973643568574905,odom,2,1,22.3058272543,114.181320749,12.7171433829,1.25992332289,0.0,0.0,0.0,1.33362180934,0.0,0.0,0.0,2.4572195273,2
1505973644568957090,1215,1505973644568957090,odom,2,1,22.3058855027,114.181289444,13.0973179154,1.25745546752,0.0,0.0,0.0,1.33687541482,0.0,0.0,0.0,2.38559377352,2
1505973645568676948,1216,1505973645568676948,odom,2,1,22.3059394459,114.181254823,13.3624986885,1.26473901606,0.0,0.0,0.0,1.35092676835,0.0,0.0,0.0,2.42886933781,2
1505973646568089008,1217,1505973646568089008,odom,2,1,22.3059888753,114.1812178,13.5093300706,1.27366432607,0.0,0.0,0.0,1.3666624431,0.0,0.0,0.0,2.47483918286,2
1505973647568569898,1218,1505973647568569898,odom,2,1,22.306039115,114.181175514,13.6141486038,1.2839725234,0.0,0.0,0.0,1.38391079678,0.0,0.0,0.0,2.52248286632,2
1505973648568887948,1219,1505973648568887948,odom,2,1,22.3060902458,114.18112746,13.6557290759,1.29581585648,0.0,0.0,0.0,1.40264122587,0.0,0.0,0.0,2.57238249636,2
1505973649568291902,1220,1505973649568291902,odom,2,1,22.3061393285,114.181074418,13.6128853941,1.3091160985,0.0,0.0,0.0,1.42164571754,0.0,0.0,0.0,2.62490953769,2
1505973650568675994,1221,1505973650568675994,odom,2,1,22.3061843203,114.181015591,13.4492955236,1.32459420354,0.0,0.0,0.0,1.44477861458,0.0,0.0,0.0,2.68047989101,2
1505973651567969083,1222,1505973651567969083,odom,2,1,22.3062226246,114.180950363,13.1840751534,1.34220994011,0.0,0.0,0.0,1.47030602225,0.0,0.0,0.0,2.7384410718,2
1505973652568084955,1223,1505973652568084955,odom,2,1,22.3062529184,114.180878651,12.8746178774,1.36208158495,0.0,0.0,0.0,1.49824317449,0.0,0.0,0.0,2.79839402396,2
1505973653568326950,1224,1505973653568326950,odom,2,1,22.3062770308,114.180802979,12.5958595695,1.38445736417,0.0,0.0,0.0,1.52844887402,0.0,0.0,0.0,2.85997358178,2
1505973654568615913,1225,1505973654568615913,odom,2,1,22.3062902701,114.180723089,12.3245377969,1.40865015826,0.0,0.0,0.0,1.55203675553,0.0,0.0,0.0,2.89032626742,2
1505973655568459033,1226,1505973655568459033,odom,2,1,22.3062906737,114.180640421,12.0022668047,1.43623335212,0.0,0.0,0.0,1.58681703223,0.0,0.0,0.0,2.95375382219,2
1505973656568646907,1227,1505973656568646907,odom,2,1,22.3062784414,114.180559979,11.6040770318,1.4662685452,0.0,0.0,0.0,1.62119450166,0.0,0.0,0.0,3.01179160339,2
1505973657568100929,1228,1505973657568100929,odom,2,1,22.3062554144,114.180486827,11.2071020957,1.49915349891,0.0,0.0,0.0,1.65390823698,0.0,0.0,0.0,3.06395947307,2
1505973658568455934,1229,1505973658568455934,odom,2,1,22.306221555,114.18041686,10.7950102678,1.52831917446,0.0,0.0,0.0,1.67725291019,0.0,0.0,0.0,3.08678565969,2
1505973659568891048,1230,1505973659568891048,odom,2,1,22.3061801559,114.180352149,10.689186275,1.55712386331,0.0,0.0,0.0,1.69842214195,0.0,0.0,0.0,3.10618345938,2
1505973660569638967,1231,1505973660569638967,odom,2,1,22.306133357,114.180289098,10.700068349,1.59002880196,0.0,0.0,0.0,1.71974380748,0.0,0.0,0.0,3.13214420366,2
1505973661568321943,1232,1505973661568321943,odom,2,1,22.306083742,114.180225618,10.7914419072,1.61379288771,0.0,0.0,0.0,1.65850535556,0.0,0.0,0.0,3.11363920301,2
1505973662568773984,1233,1505973662568773984,odom,2,1,22.3060313869,114.180162915,10.8322980264,1.64579845095,0.0,0.0,0.0,1.67864084643,0.0,0.0,0.0,3.14075905847,2
1505973663568511962,1234,1505973663568511962,odom,2,1,22.3059788968,114.180099744,11.0869046887,1.67825015881,0.0,0.0,0.0,1.69640658413,0.0,0.0,0.0,3.15434045279,2
1505973664569061994,1235,1505973664569061994,odom,2,1,22.305928316,114.180037045,11.3945369208,1.6944128093,0.0,0.0,0.0,1.69755653551,0.0,0.0,0.0,3.01531781616,2
1505973665568150997,1236,1505973665568150997,odom,2,1,22.3058801531,114.179972583,11.594979885,1.72355970003,0.0,0.0,0.0,1.71313573274,0.0,0.0,0.0,2.99321995527,2
1505973666568954944,1237,1505973666568954944,odom,2,1,22.3058352433,114.179907704,11.9038889464,1.76136761785,0.0,0.0,0.0,1.73731244569,0.0,0.0,0.0,2.97495332948,2
1505973667568238019,1238,1505973667568238019,odom,2,1,22.3057958579,114.179844836,12.2399182273,1.80156935334,0.0,0.0,0.0,1.76494507976,0.0,0.0,0.0,2.95896559373,2
1505973668568978071,1239,1505973668568978071,odom,2,1,22.3057611608,114.179786043,12.5151355462,1.84591491362,0.0,0.0,0.0,1.79752586829,0.0,0.0,0.0,2.95686390138,2
1505973669568531990,1240,1505973669568531990,odom,2,1,22.3057309577,114.179731711,12.764185668,1.89260160984,0.0,0.0,0.0,1.83252303301,0.0,0.0,0.0,2.95663326811,2
1505973670569391965,1241,1505973670569391965,odom,2,1,22.3057053583,114.179680025,13.0709636789,1.94095900232,0.0,0.0,0.0,1.86825445164,0.0,0.0,0.0,2.9473795666,2
1505973671568934917,1242,1505973671568934917,odom,2,1,22.3056835317,114.179629511,13.2293224754,1.98342834745,0.0,0.0,0.0,1.89979354072,0.0,0.0,0.0,2.93855883862,2
1505973672568514108,1243,1505973672568514108,odom,2,1,22.3056615421,114.179579103,13.3697996,2.02856634392,0.0,0.0,0.0,1.93253761455,0.0,0.0,0.0,2.94050076106,2
1505973673569158077,1244,1505973673569158077,odom,2,1,22.3056532263,114.179517747,13.2443296751,1.87575021408,0.0,0.0,0.0,1.74767296001,0.0,0.0,0.0,2.92000370873,2
1505973674569245100,1245,1505973674569245100,odom,2,1,22.3056383657,114.179472522,13.1672544703,1.86433147922,0.0,0.0,0.0,1.73949180371,0.0,0.0,0.0,2.71980417901,2
1505973675568669080,1246,1505973675568669080,odom,2,1,22.30562568,114.179433136,13.2304751007,1.89649333376,0.0,0.0,0.0,1.76359573156,0.0,0.0,0.0,2.72610047589,2
1505973676569255113,1247,1505973676569255113,odom,2,1,22.3056185858,114.17938586,13.172843351,1.79685449493,0.0,0.0,0.0,1.64622572414,0.0,0.0,0.0,2.71694366772,2
1505973677568372964,1248,1505973677568372964,odom,2,1,22.3056092348,114.179334034,13.117350921,1.73654015653,0.0,0.0,0.0,1.57266548304,0.0,0.0,0.0,2.710055328,2
1505973678568509101,1249,1505973678568509101,odom,2,1,22.3055975771,114.179275526,13.1173176654,1.70227469534,0.0,0.0,0.0,1.52782844903,0.0,0.0,0.0,2.70535797776,2
1505973679569310903,1250,1505973679569310903,odom,2,1,22.3055875396,114.17920935,13.0711814575,1.68562681467,0.0,0.0,0.0,1.50073701627,0.0,0.0,0.0,2.70465189884,2
1505973680568665981,1251,1505973680568665981,odom,2,1,22.3055791366,114.179136492,13.010953662,1.68078389385,0.0,0.0,0.0,1.4907086367,0.0,0.0,0.0,2.73179775285,2
1505973681568644046,1252,1505973681568644046,odom,2,1,22.3055713829,114.179062996,12.972467185,1.67914761371,0.0,0.0,0.0,1.48356891894,0.0,0.0,0.0,2.76163338914,2
1505973682569389104,1253,1505973682569389104,odom,2,1,22.3055587901,114.178992925,13.0554026067,1.67935713515,0.0,0.0,0.0,1.47828548545,0.0,0.0,0.0,2.79394453523,2
1505973683568952083,1254,1505973683568952083,odom,2,1,22.3055408435,114.178924018,13.0700914813,1.68247355344,0.0,0.0,0.0,1.4765142714,0.0,0.0,0.0,2.83049716574,2
1505973684569261074,1255,1505973684569261074,odom,2,1,22.3055125862,114.178857509,13.0683268309,1.68366442083,0.0,0.0,0.0,1.47665269115,0.0,0.0,0.0,2.82461972065,2
1505973685569462060,1256,1505973685569462060,odom,2,1,22.3054753677,114.178793964,12.9388855351,1.67997093365,0.0,0.0,0.0,1.46516945612,0.0,0.0,0.0,2.79362688652,2
1505973686568622112,1257,1505973686568622112,odom,2,1,22.3054291806,114.178735366,12.7582305269,1.67618665516,0.0,0.0,0.0,1.45478654276,0.0,0.0,0.0,2.7633298375,2
1505973687568948984,1258,1505973687568948984,odom,2,1,22.3053739889,114.178682494,12.4207594981,1.64965110871,0.0,0.0,0.0,1.4393067675,0.0,0.0,0.0,2.73779512932,2
1505973688569258928,1259,1505973688569258928,odom,2,1,22.3053106096,114.178635058,12.1920562293,1.60147817763,0.0,0.0,0.0,1.41425276806,0.0,0.0,0.0,2.70038716236,2
1505973689569189071,1260,1505973689569189071,odom,2,1,22.3052402176,114.178591693,11.8063226948,1.5634513451,0.0,0.0,0.0,1.39301699894,0.0,0.0,0.0,2.66921179484,2
1505973690569418907,1261,1505973690569418907,odom,2,1,22.3051615563,114.178553531,11.4883026853,1.53288997639,0.0,0.0,0.0,1.37523537484,0.0,0.0,0.0,2.64147905103,2
1505973691568646907,1262,1505973691568646907,odom,2,1,22.3050753459,114.17852128,11.1627332577,1.50888343864,0.0,0.0,0.0,1.36021043455,0.0,0.0,0.0,2.61695245984,2
1505973692569077014,1263,1505973692569077014,odom,2,1,22.3049837771,114.178493395,10.9781370675,1.49428430151,0.0,0.0,0.0,1.34762927772,0.0,0.0,0.0,2.59385871117,2
1505973693568891048,1264,1505973693568891048,odom,2,1,22.3048888637,114.178467949,10.9406195376,1.49940002929,0.0,0.0,0.0,1.34909953498,0.0,0.0,0.0,2.59511241276,2
1505973694569665908,1265,1505973694569665908,odom,2,1,22.3047935123,114.178443501,10.9115624977,1.48564576378,0.0,0.0,0.0,1.3430277623,0.0,0.0,0.0,2.47525925109,2
1505973695569082021,1266,1505973695569082021,odom,2,1,22.3046998676,114.178420341,10.9187592892,1.48173382893,0.0,0.0,0.0,1.34192433147,0.0,0.0,0.0,2.46900283742,2
1505973696568938016,1267,1505973696568938016,odom,2,1,22.3046098103,114.178397327,10.8480465878,1.48651526958,0.0,0.0,0.0,1.34112953834,0.0,0.0,0.0,2.46310861362,2
1505973697568978071,1268,1505973697568978071,odom,2,1,22.3045219791,114.178375032,10.8421883732,1.49426985535,0.0,0.0,0.0,1.34466051309,0.0,0.0,0.0,2.46914361018,2
1505973698569411993,1269,1505973698569411993,odom,2,1,22.3044344578,114.178353398,10.8221921111,1.50265567325,0.0,0.0,0.0,1.34896337449,0.0,0.0,0.0,2.4753455641,2
1505973699568578004,1270,1505973699568578004,odom,2,1,22.3043476905,114.178332078,10.7348521566,1.51123283557,0.0,0.0,0.0,1.35416997291,0.0,0.0,0.0,2.48095130065,2
1505973700568639039,1271,1505973700568639039,odom,2,1,22.3042626133,114.178310881,10.5691281566,1.50530524099,0.0,0.0,0.0,1.35483767208,0.0,0.0,0.0,2.4741660771,2
1505973701569165945,1272,1505973701569165945,odom,2,1,22.3041817222,114.178289986,10.4225805718,1.50060086466,0.0,0.0,0.0,1.35631949204,0.0,0.0,0.0,2.46759860963,2
1505973702568901062,1273,1505973702568901062,odom,2,1,22.3041028121,114.178266255,10.2722855574,1.50953695733,0.0,0.0,0.0,1.36322375284,0.0,0.0,0.0,2.46271706142,2
1505973703568986892,1274,1505973703568986892,odom,2,1,22.304024857,114.178236515,10.0522079831,1.51972320468,0.0,0.0,0.0,1.36791842653,0.0,0.0,0.0,2.45829851046,2
1505973704569344997,1275,1505973704569344997,odom,2,1,22.3039526176,114.178201712,9.59415794071,1.51288867781,0.0,0.0,0.0,1.36961145562,0.0,0.0,0.0,2.37387112757,2
1505973705568506002,1276,1505973705568506002,odom,2,1,22.303888595,114.178165247,9.31873096619,1.5268465246,0.0,0.0,0.0,1.38105372147,0.0,0.0,0.0,2.37972896834,2
1505973706569008111,1277,1505973706569008111,odom,2,1,22.3038312929,114.178127007,9.07857232168,1.54217189535,0.0,0.0,0.0,1.39372959113,0.0,0.0,0.0,2.38559377352,2
1505973707569972991,1278,1505973707569972991,odom,2,1,22.303778204,114.178088601,8.79827907775,1.56017478152,0.0,0.0,0.0,1.4085765105,0.0,0.0,0.0,2.39510146481,2
1505973709101886987,1279,1505973709101886987,odom,2,1,22.3037585507,114.178019907,7.39899914339,1.57793454824,0.0,0.0,0.0,1.45032902588,0.0,0.0,0.0,2.32333202818,2
1505973710101820945,1280,1505973710101820945,odom,2,1,22.3037136588,114.177979843,7.3364258064,1.5187087164,0.0,0.0,0.0,1.41370474658,0.0,0.0,0.0,2.25116651477,2
1505973711101618051,1281,1505973711101618051,odom,2,1,22.3036740909,114.177942084,7.20766314305,1.51924578419,0.0,0.0,0.0,1.41400589551,0.0,0.0,0.0,2.2517006213,2
1505973712101505994,1282,1505973712101505994,odom,2,1,22.303641862,114.177909228,7.0702641625,1.49502439122,0.0,0.0,0.0,1.40618756611,0.0,0.0,0.0,2.18792127452,2
1505973713101459980,1283,1505973713101459980,odom,2,1,22.303615658,114.177884182,6.95414425991,1.49537767626,0.0,0.0,0.0,1.40645512523,0.0,0.0,0.0,2.18842482431,2
1505973714101188898,1284,1505973714101188898,odom,2,1,22.3035971124,114.177867526,7.03234181833,1.47824597042,0.0,0.0,0.0,1.40087342227,0.0,0.0,0.0,2.16388754603,2
1505973715101490020,1285,1505973715101490020,odom,2,1,22.30358296,114.177857821,6.98889341578,1.48070585372,0.0,0.0,0.0,1.40172328234,0.0,0.0,0.0,2.17664581626,2
1505973716101942062,1286,1505973716101942062,odom,2,1,22.3035725588,114.177851014,6.8847401673,1.46637692428,0.0,0.0,0.0,1.39591122284,0.0,0.0,0.0,2.11272503885,2
1505973717101785898,1287,1505973717101785898,odom,2,1,22.3035649575,114.177846058,6.90417425055,1.46683500373,0.0,0.0,0.0,1.39618481574,0.0,0.0,0.0,2.11324218911,2
1505973718101833105,1288,1505973718101833105,odom,2,1,22.303563242,114.177844296,6.8757401742,1.46315980263,0.0,0.0,0.0,1.39423334882,0.0,0.0,0.0,2.10173220817,2
1505973719101396083,1289,1505973719101396083,odom,2,1,22.3035628533,114.177844653,6.88857030589,1.44251977499,0.0,0.0,0.0,1.38075231723,0.0,0.0,0.0,2.09010650598,2
1505973720101502895,1290,1505973720101502895,odom,2,1,22.3035627416,114.177844676,6.88616446033,1.43620730312,0.0,0.0,0.0,1.37780538732,0.0,0.0,0.0,2.06806485727,2
1505973721101568937,1291,1505973721101568937,odom,2,1,22.3035627975,114.177844668,6.88927075919,1.43646698358,0.0,0.0,0.0,1.3780331865,0.0,0.0,0.0,2.06850116844,2
1505973722102077960,1292,1505973722102077960,odom,2,1,22.3035626973,114.177844663,6.90845863894,1.4304824365,0.0,0.0,0.0,1.3751131941,0.0,0.0,0.0,2.0470765383,2
1505973723101989984,1293,1505973723101989984,odom,2,1,22.3035626257,114.177844655,6.91621105559,1.43061388113,0.0,0.0,0.0,1.37530597247,0.0,0.0,0.0,2.04746578734,2
1505973724102478981,1294,1505973724102478981,odom,2,1,22.3035622347,114.177844965,6.93923196755,1.42513473929,0.0,0.0,0.0,1.37275119944,0.0,0.0,0.0,2.0267610466,2
1505973725101929903,1295,1505973725101929903,odom,2,1,22.3035621559,114.17784503,6.9394459324,1.42526480925,0.0,0.0,0.0,1.37294081054,0.0,0.0,0.0,2.0271482752,2
1505973726102792024,1296,1505973726102792024,odom,2,1,22.3035621011,114.177845063,6.93709674478,1.42251620164,0.0,0.0,0.0,1.37175624152,0.0,0.0,0.0,2.01706300051,2
1505973727101421117,1297,1505973727101421117,odom,2,1,22.3035619266,114.177845254,6.94254512992,1.41969247737,0.0,0.0,0.0,1.37056858925,0.0,0.0,0.0,2.00694382205,2
1505973728102180004,1298,1505973728102180004,odom,2,1,22.3035614527,114.177845532,6.98119458836,1.41358662353,0.0,0.0,0.0,1.36790723656,0.0,0.0,0.0,1.98631022971,2
