%time,field.header.seq,field.header.stamp,field.header.frame_id,field.status.status,field.status.service,field.latitude,field.longitude,field.altitude,field.position_covariance0,field.position_covariance1,field.position_covariance2,field.position_covariance3,field.position_covariance4,field.position_covariance5,field.position_covariance6,field.position_covariance7,field.position_covariance8,field.position_covariance_type
1504580174079771041,4,1504580174079771041,odom,2,1,22.3054017579,114.18137698,10.7373786215,4.25931653255,0.0,0.0,0.0,4.32437205728,0.0,0.0,0.0,4.65578494311,2
1504580175079849958,5,1504580175079849958,odom,2,1,22.3054474339,114.181384305,10.9936874453,4.26283885144,0.0,0.0,0.0,4.3271972454,0.0,0.0,0.0,4.65887900352,2
1504580176080224990,6,1504580176080224990,odom,2,1,22.3054946713,114.181389103,11.2874588296,4.26775750087,0.0,0.0,0.0,4.33125166638,0.0,0.0,0.0,4.66715531329,2
1504580177079521894,7,1504580177079521894,odom,2,1,22.3055419466,114.181390702,11.6262081554,4.27365494203,0.0,0.0,0.0,4.33596835347,0.0,0.0,0.0,4.67608072278,2
1504580178079783916,8,1504580178079783916,odom,2,1,22.3055875035,114.181387772,11.920770308,4.28074390304,0.0,0.0,0.0,4.34151304262,0.0,0.0,0.0,4.68584551936,2
1504580179080070972,9,1504580179080070972,odom,2,1,22.3056346868,114.181381089,12.1871627178,4.28692424302,0.0,0.0,0.0,4.34611592946,0.0,0.0,0.0,4.69076850729,2
1504580180080594062,10,1504580180080594062,odom,2,1,22.3056835592,114.181370298,12.4681758974,4.29304397776,0.0,0.0,0.0,4.3503685263,0.0,0.0,0.0,4.69506659201,2
1504580181080501079,11,1504580181080501079,odom,2,1,22.3057337153,114.181354616,12.7446072111,4.30399005295,0.0,0.0,0.0,4.35819689081,0.0,0.0,0.0,4.70607479539,2
1504580182080306053,12,1504580182080306053,odom,2,1,22.3057866084,114.181334102,13.0725768292,4.31684985255,0.0,0.0,0.0,4.36725528623,0.0,0.0,0.0,4.71801316837,2
1504580183080375909,13,1504580183080375909,odom,2,1,22.3058426993,114.181308086,13.4086958636,4.32916495754,0.0,0.0,0.0,4.37510246955,0.0,0.0,0.0,4.72851797994,2
1504580184079823970,14,1504580184079823970,odom,2,1,22.3058983993,114.181277581,13.7084332034,4.33687776158,0.0,0.0,0.0,4.37796803574,0.0,0.0,0.0,4.72659292608,2
1504580185080580949,15,1504580185080580949,odom,2,1,22.3059515363,114.181242952,13.9335137364,4.35654067203,0.0,0.0,0.0,4.39164758376,0.0,0.0,0.0,4.74169482124,2
1504580186080533981,16,1504580186080533981,odom,2,1,22.306003656,114.181204297,14.0892378883,4.37931539881,0.0,0.0,0.0,4.40801777974,0.0,0.0,0.0,4.75780569449,2
1504580187079905986,17,1504580187079905986,odom,2,1,22.3060528831,114.181163933,14.1780370735,4.40651812475,0.0,0.0,0.0,4.4272320145,0.0,0.0,0.0,4.77501203631,2
1504580188079931020,18,1504580188079931020,odom,2,1,22.3060969416,114.181122812,14.2279567337,4.4244394915,0.0,0.0,0.0,4.43119415735,0.0,0.0,0.0,4.79334195895,2
1504580189079602956,19,1504580189079602956,odom,2,1,22.3061373357,114.181080768,14.2121364847,4.45444306971,0.0,0.0,0.0,4.45110299426,0.0,0.0,0.0,4.81212553918,2
1504580190079499959,20,1504580190079499959,odom,2,1,22.306175003,114.181036581,14.1295132414,4.49256197058,0.0,0.0,0.0,4.47655687775,0.0,0.0,0.0,4.8325365928,2
1504580191079462051,21,1504580191079462051,odom,2,1,22.3062099228,114.180986518,13.9593106443,4.536253889,0.0,0.0,0.0,4.50616913379,0.0,0.0,0.0,4.85408336207,2
1504580192079499006,22,1504580192079499006,odom,2,1,22.3062380959,114.180935536,13.7658219729,4.58641516011,0.0,0.0,0.0,4.54057622331,0.0,0.0,0.0,4.8767673527,2
1504580193080926895,23,1504580193080926895,odom,2,1,22.3062612737,114.180884971,13.5771950027,4.6439909844,0.0,0.0,0.0,4.58051833567,0.0,0.0,0.0,4.90049263864,2
1504580194079700946,24,1504580194079700946,odom,2,1,22.3062820917,114.180830404,13.3765471131,4.70887620577,0.0,0.0,0.0,4.60207144984,0.0,0.0,0.0,4.92267186588,2
1504580195080785989,25,1504580195080785989,odom,2,1,22.306297529,114.180770703,13.2074555997,4.75326164689,0.0,0.0,0.0,4.64451595813,0.0,0.0,0.0,4.94331979822,2
1504580196080106973,26,1504580196080106973,odom,2,1,22.3063050758,114.180710553,13.0437260643,4.80407244814,0.0,0.0,0.0,4.68648210208,0.0,0.0,0.0,4.96567972766,2
1504580197080341100,27,1504580197080341100,odom,2,1,22.3063058382,114.180652191,12.8326409282,4.88829366985,0.0,0.0,0.0,4.73356402575,0.0,0.0,0.0,4.99281532223,2
1504580198080080986,28,1504580198080080986,odom,2,1,22.3063008832,114.180594636,12.6188575123,4.97737835284,0.0,0.0,0.0,4.6847785467,0.0,0.0,0.0,5.01540161941,2
1504580199079924106,29,1504580199079924106,odom,2,1,22.3062875305,114.180538451,12.3871726459,4.94392681366,0.0,0.0,0.0,4.60030354681,0.0,0.0,0.0,5.03326837062,2
1504580200080017089,30,1504580200080017089,odom,2,1,22.3062693169,114.180477472,12.0335681895,5.00501044314,0.0,0.0,0.0,4.55725001049,0.0,0.0,0.0,5.04458431704,2
1504580201081738948,31,1504580201081738948,odom,2,1,22.306243982,114.180418206,11.8124078987,5.10880749362,0.0,0.0,0.0,4.53103852328,0.0,0.0,0.0,5.06732859869,2
1504580202081114053,32,1504580202081114053,odom,2,1,22.3062117725,114.180363469,11.5604253253,5.21978465106,0.0,0.0,0.0,4.5119105921,0.0,0.0,0.0,5.07193064895,2
1504580203079997062,33,1504580203079997062,odom,2,1,22.3061746666,114.180308336,11.4783698255,5.23883573029,0.0,0.0,0.0,4.50522422666,0.0,0.0,0.0,5.08439631351,2
1504580204080267906,34,1504580204080267906,odom,2,1,22.30613245,114.180248201,11.4483000096,5.30148360624,0.0,0.0,0.0,4.50867495313,0.0,0.0,0.0,5.10377892182,2
1504580205080890893,35,1504580205080890893,odom,2,1,22.3060866595,114.180185722,11.5125309536,5.43704292426,0.0,0.0,0.0,4.51715544928,0.0,0.0,0.0,5.13411215795,2
1504580206080785989,36,1504580206080785989,odom,2,1,22.3060350374,114.180121732,11.6504379204,5.23058888442,0.0,0.0,0.0,4.51401078773,0.0,0.0,0.0,5.1602746483,2
1504580207080791950,37,1504580207080791950,odom,2,1,22.3059841451,114.180057293,11.8669481957,4.98735444237,0.0,0.0,0.0,4.50937316576,0.0,0.0,0.0,5.18599535666,2
1504580208081120014,38,1504580208081120014,odom,2,1,22.305928589,114.179995094,12.119648546,4.70624823059,0.0,0.0,0.0,4.4970596768,0.0,0.0,0.0,5.21534147646,2
1504580209080333948,39,1504580209080333948,odom,2,1,22.3058828228,114.17993016,12.417839949,4.62455435256,0.0,0.0,0.0,4.48690445339,0.0,0.0,0.0,5.23931365471,2
1504580210079986095,40,1504580210079986095,odom,2,1,22.3058370926,114.179865645,12.6670917058,4.61300493177,0.0,0.0,0.0,4.47981758851,0.0,0.0,0.0,5.2600047981,2
1504580211080179929,41,1504580211080179929,odom,2,1,22.3057970651,114.179798649,12.9136268785,4.61208411534,0.0,0.0,0.0,4.48138514326,0.0,0.0,0.0,5.28386528641,2
1504580212081003904,42,1504580212081003904,odom,2,1,22.3057606947,114.179729299,13.2046412025,4.61327480851,0.0,0.0,0.0,4.48359560871,0.0,0.0,0.0,5.30769717444,2
1504580213080703973,43,1504580213080703973,odom,2,1,22.3057267329,114.179658013,13.3552924255,4.59409807661,0.0,0.0,0.0,4.46581764233,0.0,0.0,0.0,5.289438412,2
1504580214081060886,44,1504580214081060886,odom,2,1,22.3056958821,114.179585279,13.5112446323,4.59222243485,0.0,0.0,0.0,4.46611950161,0.0,0.0,0.0,5.29985339992,2
1504580215081032991,45,1504580215081032991,odom,2,1,22.305668331,114.179511493,13.5195004782,4.58448886311,0.0,0.0,0.0,4.45544064778,0.0,0.0,0.0,5.28154393861,2
1504580216080456972,46,1504580216080456972,odom,2,1,22.3056428485,114.179436253,13.7800038606,4.58171072275,0.0,0.0,0.0,4.45170695098,0.0,0.0,0.0,5.27170417509,2
1504580217080595970,47,1504580217080595970,odom,2,1,22.3056215796,114.179358026,13.8410022277,4.5796077881,0.0,0.0,0.0,4.44836525149,0.0,0.0,0.0,5.2577634439,2
1504580218080560922,48,1504580218080560922,odom,2,1,22.3056035298,114.179277913,13.8635640256,4.58287994192,0.0,0.0,0.0,4.4489416332,0.0,0.0,0.0,5.23866864019,2
1504580219080189943,49,1504580219080189943,odom,2,1,22.3055893499,114.179195419,13.932938219,4.58646139512,0.0,0.0,0.0,4.44949088271,0.0,0.0,0.0,5.24725686739,2
1504580220080812931,50,1504580220080812931,odom,2,1,22.3055790965,114.17911314,14.0248134229,4.58918856897,0.0,0.0,0.0,4.44760886381,0.0,0.0,0.0,5.24403896662,2
1504580221081722021,51,1504580221081722021,odom,2,1,22.3055704954,114.17904382,14.2017283011,4.59003730317,0.0,0.0,0.0,4.4451120073,0.0,0.0,0.0,5.22660550526,2
1504580222080032110,52,1504580222080032110,odom,2,1,22.305559808,114.178985015,14.4202171769,4.59194620106,0.0,0.0,0.0,4.44450160036,0.0,0.0,0.0,5.20360465213,2
1504580223080173969,53,1504580223080173969,odom,2,1,22.3055448388,114.178929701,14.364510606,4.59173448367,0.0,0.0,0.0,4.44251450223,0.0,0.0,0.0,5.19003012395,2
1504580224080877065,54,1504580224080877065,odom,2,1,22.3055241004,114.17887572,14.1873866599,4.59107586976,0.0,0.0,0.0,4.4405033421,0.0,0.0,0.0,5.18626447209,2
1504580225080619096,55,1504580225080619096,odom,2,1,22.3054971112,114.178825238,14.1049746163,4.58994400299,0.0,0.0,0.0,4.43847842243,0.0,0.0,0.0,5.17922065243,2
1504580226080602884,56,1504580226080602884,odom,2,1,22.3054652675,114.178780397,13.9632829074,4.58756662634,0.0,0.0,0.0,4.43570006376,0.0,0.0,0.0,5.16517194329,2
1504580227080656051,57,1504580227080656051,odom,2,1,22.3054273184,114.178737806,13.7514325194,4.57575567065,0.0,0.0,0.0,4.42980008615,0.0,0.0,0.0,5.13916042448,2
1504580228081341981,58,1504580228081341981,odom,2,1,22.3053805267,114.178693054,13.5074198646,4.56426174265,0.0,0.0,0.0,4.42383704088,0.0,0.0,0.0,5.11579021286,2
1504580229080833911,59,1504580229080833911,odom,2,1,22.3053287374,114.17865154,13.1859856136,4.55307808955,0.0,0.0,0.0,4.41783018611,0.0,0.0,0.0,5.09405819479,2
1504580230080761909,60,1504580230080761909,odom,2,1,22.3052737589,114.178614795,12.9312636433,4.54209973368,0.0,0.0,0.0,4.41192335468,0.0,0.0,0.0,5.07384709733,2
1504580231080735921,61,1504580231080735921,odom,2,1,22.3052170851,114.178583384,12.6158499261,4.53334689927,0.0,0.0,0.0,4.40719396243,0.0,0.0,0.0,5.05977565772,2
1504580232080945968,62,1504580232080945968,odom,2,1,22.3051577347,114.178555307,12.2903372822,4.52487339402,0.0,0.0,0.0,4.40270828224,0.0,0.0,0.0,5.04673229215,2
1504580233081031084,63,1504580233081031084,odom,2,1,22.3050906847,114.178528214,12.1495707864,4.51589553076,0.0,0.0,0.0,4.39804182545,0.0,0.0,0.0,5.03324008971,2
1504580234081080913,64,1504580234081080913,odom,2,1,22.3050141552,114.178502634,12.0582293123,4.50683269765,0.0,0.0,0.0,4.39355239102,0.0,0.0,0.0,5.02116288494,2
1504580235081290006,65,1504580235081290006,odom,2,1,22.3049337081,114.1784795,12.0429116515,4.49971138253,0.0,0.0,0.0,4.39028844561,0.0,0.0,0.0,5.01361827052,2
1504580236080168962,66,1504580236080168962,odom,2,1,22.3048531252,114.178457521,12.0583213009,4.49270155091,0.0,0.0,0.0,4.38733215908,0.0,0.0,0.0,5.00449682558,2
1504580237081790924,67,1504580237081790924,odom,2,1,22.3047745298,114.178435476,12.0245344648,4.48604661749,0.0,0.0,0.0,4.38488363431,0.0,0.0,0.0,5.00172618523,2
1504580238080425024,68,1504580238080425024,odom,2,1,22.3047012133,114.178415323,11.9486334305,4.47878568608,0.0,0.0,0.0,4.38224600564,0.0,0.0,0.0,4.99830448384,2
1504580239080482006,69,1504580239080482006,odom,2,1,22.3046318087,114.178396566,11.8424113849,4.47315956283,0.0,0.0,0.0,4.38106281227,0.0,0.0,0.0,5.00023442885,2
1504580240080624103,70,1504580240080624103,odom,2,1,22.3045617573,114.178377147,11.7774087032,4.46849301808,0.0,0.0,0.0,4.38005438132,0.0,0.0,0.0,5.00439096571,2
1504580241080740928,71,1504580241080740928,odom,2,1,22.3044885079,114.178356554,11.7185260113,4.46264824521,0.0,0.0,0.0,4.37909539284,0.0,0.0,0.0,5.00867263247,2
1504580242080655097,72,1504580242080655097,odom,2,1,22.3044133194,114.17833582,11.6427978603,4.45618732097,0.0,0.0,0.0,4.37836380777,0.0,0.0,0.0,5.01124670333,2
1504580243080897092,73,1504580243080897092,odom,2,1,22.3043389276,114.178315997,11.554055349,4.45063371541,0.0,0.0,0.0,4.37786747048,0.0,0.0,0.0,5.01275582793,2
1504580244080962896,74,1504580244080962896,odom,2,1,22.3042695597,114.17829791,11.4458936322,4.44491807832,0.0,0.0,0.0,4.37747680724,0.0,0.0,0.0,5.01223147572,2
1504580245080347061,75,1504580245080347061,odom,2,1,22.3042077536,114.17828142,11.3136305511,4.43838966991,0.0,0.0,0.0,4.37684458542,0.0,0.0,0.0,5.00922061908,2
1504580246080615997,76,1504580246080615997,odom,2,1,22.3041553122,114.178265538,11.2009122027,4.43151564671,0.0,0.0,0.0,4.3757337166,0.0,0.0,0.0,5.00287443815,2
1504580247080838918,77,1504580247080838918,odom,2,1,22.3041121455,114.178250229,11.0514669744,4.42621222488,0.0,0.0,0.0,4.37467662809,0.0,0.0,0.0,5.00048068261,2
1504580248080394983,78,1504580248080394983,odom,2,1,22.3040753418,114.178234963,10.8697813731,4.42206014328,0.0,0.0,0.0,4.37482483646,0.0,0.0,0.0,5.00247843059,2
1504580249080544948,79,1504580249080544948,odom,2,1,22.304040994,114.178219167,10.7255625622,4.41890938639,0.0,0.0,0.0,4.37537505877,0.0,0.0,0.0,5.00732527081,2
1504580250080701112,80,1504580250080701112,odom,2,1,22.3040056594,114.17820191,10.586392059,4.41527708004,0.0,0.0,0.0,4.37586605141,0.0,0.0,0.0,5.01082270619,2
1504580251080363988,81,1504580251080363988,odom,2,1,22.3039705855,114.178183289,10.4245189605,4.41406454332,0.0,0.0,0.0,4.37714621762,0.0,0.0,0.0,5.01862104219,2
1504580252080641984,82,1504580252080641984,odom,2,1,22.3039389136,114.178164295,10.1767298849,4.39931466568,0.0,0.0,0.0,4.35813351085,0.0,0.0,0.0,5.01562955588,2
1504580253081278085,83,1504580253081278085,odom,2,1,22.3039104383,114.17814634,10.0031768084,4.39308554972,0.0,0.0,0.0,4.35546662669,0.0,0.0,0.0,5.01942476911,2
1504580254081073999,84,1504580254081073999,odom,2,1,22.3038823552,114.178128008,9.89115325361,4.39286848179,0.0,0.0,0.0,4.35691866652,0.0,0.0,0.0,5.02901969884,2
1504580255080656051,85,1504580255080656051,odom,2,1,22.3038532421,114.1781067,9.72357310262,4.38757868193,0.0,0.0,0.0,4.35436981891,0.0,0.0,0.0,5.03417344356,2
1504580256081129074,86,1504580256081129074,odom,2,1,22.3038281716,114.178087116,9.60047636926,4.38808772295,0.0,0.0,0.0,4.35694458734,0.0,0.0,0.0,5.04591835548,2
1504580257081080913,87,1504580257081080913,odom,2,1,22.3038097094,114.178071703,9.47275086958,4.37710932624,0.0,0.0,0.0,4.34131215431,0.0,0.0,0.0,5.04719102333,2
1504580258080562114,88,1504580258080562114,odom,2,1,22.3037947725,114.178059276,9.37573787849,4.36721847821,0.0,0.0,0.0,4.32673888481,0.0,0.0,0.0,5.04911981844,2
1504580259080617904,89,1504580259080617904,odom,2,1,22.3037830942,114.178049097,9.25512897409,4.35825955144,0.0,0.0,0.0,4.31351101027,0.0,0.0,0.0,5.05168378697,2
1504580260080354928,90,1504580260080354928,odom,2,1,22.3037731445,114.178040445,9.20114761218,4.35087972145,0.0,0.0,0.0,4.31090349069,0.0,0.0,0.0,5.05761628041,2
1504580261080845117,91,1504580261080845117,odom,2,1,22.3037633592,114.178031374,9.14935201034,4.34416492167,0.0,0.0,0.0,4.30873900109,0.0,0.0,0.0,5.06491655872,2
1504580262081332921,92,1504580262081332921,odom,2,1,22.3037530251,114.17802169,9.11334509496,4.34280181865,0.0,0.0,0.0,4.30936209742,0.0,0.0,0.0,5.07811769576,2
1504580263081135034,93,1504580263081135034,odom,2,1,22.303741628,114.178011505,9.04645920265,4.34321737977,0.0,0.0,0.0,4.31161311574,0.0,0.0,0.0,5.0897598915,2
1504580264081079006,94,1504580264081079006,odom,2,1,22.3037286155,114.17800001,9.01799911633,4.33828417224,0.0,0.0,0.0,4.3035113923,0.0,0.0,0.0,5.09902410122,2
1504580265080338001,95,1504580265080338001,odom,2,1,22.3037145589,114.177987078,8.997918237,4.33752069703,0.0,0.0,0.0,4.30524065396,0.0,0.0,0.0,5.10680357251,2
1504580266080581903,96,1504580266080581903,odom,2,1,22.3037018408,114.177975235,8.99583945703,4.339381231,0.0,0.0,0.0,4.30862720933,0.0,0.0,0.0,5.1256481269,2
1504580267081415891,97,1504580267081415891,odom,2,1,22.3036947257,114.177968478,9.01077415794,4.34079347501,0.0,0.0,0.0,4.31049244608,0.0,0.0,0.0,5.1386236991,2
1504580268081439971,98,1504580268081439971,odom,2,1,22.3036901184,114.177964487,8.90128022432,4.34263029465,0.0,0.0,0.0,4.31028800694,0.0,0.0,0.0,5.1447917747,2
1504580269081295013,99,1504580269081295013,odom,2,1,22.3036843594,114.177958875,8.94423623104,4.33972116039,0.0,0.0,0.0,4.30527551664,0.0,0.0,0.0,5.12654185346,2
1504580270081116914,100,1504580270081116914,odom,2,1,22.303675958,114.177951616,8.84112663288,4.3374131761,0.0,0.0,0.0,4.30123403845,0.0,0.0,0.0,5.11252619919,2
1504580271080457925,101,1504580271080457925,odom,2,1,22.3036720806,114.177945436,9.11076376494,4.3358995644,0.0,0.0,0.0,4.29852454184,0.0,0.0,0.0,5.10385736292,2
1504580272081286907,102,1504580272081286907,odom,2,1,22.3036712657,114.177944339,9.21119114943,4.33653877156,0.0,0.0,0.0,4.29774746667,0.0,0.0,0.0,5.10949393715,2
1504580273081300020,103,1504580273081300020,odom,2,1,22.303671332,114.177943921,9.39861244243,4.33713363417,0.0,0.0,0.0,4.29647845132,0.0,0.0,0.0,5.10944411834,2
1504580274081051111,104,1504580274081051111,odom,2,1,22.3036712489,114.177944078,9.44337921031,4.33477831312,0.0,0.0,0.0,4.29367544793,0.0,0.0,0.0,5.09644452758,2
1504580275081620931,105,1504580275081620931,odom,2,1,22.3036706152,114.177944729,9.29271610919,4.33271496586,0.0,0.0,0.0,4.29064736518,0.0,0.0,0.0,5.06379256038,2
1504580276081470966,106,1504580276081470966,odom,2,1,22.3036705055,114.177945747,9.0437271446,4.32756840289,0.0,0.0,0.0,4.28604230911,0.0,0.0,0.0,5.01197801707,2
1504580277081792116,107,1504580277081792116,odom,2,1,22.3036713796,114.177946677,8.87420681771,4.32355529847,0.0,0.0,0.0,4.28306561736,0.0,0.0,0.0,4.98010340863,2
1504580278080914974,108,1504580278080914974,odom,2,1,22.3036720763,114.177947224,8.77195868827,4.32192652906,0.0,0.0,0.0,4.28199128766,0.0,0.0,0.0,4.96921377135,2
1504580279081057071,109,1504580279081057071,odom,2,1,22.3036724558,114.177947582,8.7175874291,4.32148872336,0.0,0.0,0.0,4.28174291382,0.0,0.0,0.0,4.96657018462,2
1504580280082406044,110,1504580280082406044,odom,2,1,22.303672604,114.177947737,8.70732868928,4.32147872505,0.0,0.0,0.0,4.28172522392,0.0,0.0,0.0,4.96634365693,2
1504580281081350088,111,1504580281081350088,odom,2,1,22.3036727564,114.177948056,8.68077477161,4.32149229419,0.0,0.0,0.0,4.28158441496,0.0,0.0,0.0,4.96588652923,2
1504580282081837892,112,1504580282081837892,odom,2,1,22.3036720072,114.177948171,8.5045937635,4.3207503392,0.0,0.0,0.0,4.28043688849,0.0,0.0,0.0,4.95812425111,2
1504580283080753087,113,1504580283080753087,odom,2,1,22.3036705986,114.177948798,8.0961903818,4.31939030024,0.0,0.0,0.0,4.27851889989,0.0,0.0,0.0,4.94101904507,2
1504580284081161022,114,1504580284081161022,odom,2,1,22.3036703561,114.177948185,8.42263718601,4.3181363026,0.0,0.0,0.0,4.27673393456,0.0,0.0,0.0,4.91876284423,2
1504580285081168889,115,1504580285081168889,odom,2,1,22.303670286,114.177947689,8.5865191007,4.3172351052,0.0,0.0,0.0,4.27541459948,0.0,0.0,0.0,4.89685856417,2
