%time,field.header.seq,field.header.stamp,field.header.frame_id,field.status.status,field.status.service,field.latitude,field.longitude,field.altitude,field.position_covariance0,field.position_covariance1,field.position_covariance2,field.position_covariance3,field.position_covariance4,field.position_covariance5,field.position_covariance6,field.position_covariance7,field.position_covariance8,field.position_covariance_type
1505973327565408945,898,1505973327565408945,odom,2,1,22.3058491279,114.174501844,-458.736266914,4.56774862061e+125,0.0,0.0,0.0,1.88192167599e+136,0.0,0.0,0.0,2.40762369372e+117,2
1505973328566301107,899,1505973328566301107,odom,2,1,22.3067977399,114.174876744,-457.114284937,3.80211093833e+123,0.0,0.0,0.0,1.44066731378e+135,0.0,0.0,0.0,1.93172725858e+117,2
1505973329565824031,900,1505973329565824031,odom,2,1,22.3067962454,114.174874823,-457.106312803,3.80211093833e+123,0.0,0.0,0.0,1.44066731378e+135,0.0,0.0,0.0,1.93172725858e+117,2
1505973330566054105,901,1505973330566054105,odom,2,1,22.3067938128,114.174871758,-457.095799579,3.80203051246e+123,0.0,0.0,0.0,1.44075874074e+135,0.0,0.0,0.0,1.93160467598e+117,2
1505973331565685987,902,1505973331565685987,odom,2,1,22.3068000387,114.174858169,-457.553071538,3.54680463498e+123,0.0,0.0,0.0,1.38262608341e+135,0.0,0.0,0.0,1.92544472424e+117,2
1505973332565793991,903,1505973332565793991,odom,2,1,22.3068283261,114.174866136,-457.122567865,3.39442068142e+123,0.0,0.0,0.0,1.34691686183e+135,0.0,0.0,0.0,1.92113225866e+117,2
1505973333566435098,904,1505973333566435098,odom,2,1,22.3068891636,114.174892519,-455.752988465,3.26725972828e+123,0.0,0.0,0.0,1.31577094649e+135,0.0,0.0,0.0,1.91682945181e+117,2
1505973334565757989,905,1505973334565757989,odom,2,1,22.3069966525,114.174940384,-453.212755864,3.12629083097e+123,0.0,0.0,0.0,1.27964819047e+135,0.0,0.0,0.0,1.9111208387e+117,2
1505973335565747022,906,1505973335565747022,odom,2,1,22.3071802208,114.175045346,-451.992173092,2.95974421715e+123,0.0,0.0,0.0,1.23531110986e+135,0.0,0.0,0.0,1.90506650837e+117,2
1505973336565958976,907,1505973336565958976,odom,2,1,22.3076608465,114.175410834,-449.718936638,2.58909664917e+123,0.0,0.0,0.0,1.1353521205e+135,0.0,0.0,0.0,1.89317550626e+117,2
1505973337565593004,908,1505973337565593004,odom,2,1,22.3076623904,114.175247792,-434.121453472,1.08412297208e+123,0.0,0.0,0.0,7.62381683783e+134,0.0,0.0,0.0,1.76930458587e+117,2
1505973338566097021,909,1505973338566097021,odom,2,1,22.3035270308,114.180571614,-67.6471852856,671265188.83,0.0,0.0,0.0,1.35203167883e+30,0.0,0.0,0.0,2.4871105713e+76,2
1505973339566493034,910,1505973339566493034,odom,2,1,22.303536828,114.180590641,-67.475225498,172800309.831,0.0,0.0,0.0,5.63201901101e+29,0.0,0.0,0.0,2.17291414158e+76,2
1505973340566301107,911,1505973340566301107,odom,2,1,22.3035551357,114.180610695,-67.3055990944,155418411.858,0.0,0.0,0.0,5.23326179318e+29,0.0,0.0,0.0,2.15937413271e+76,2
1505973341565469980,912,1505973341565469980,odom,2,1,22.3035797828,114.180638513,-67.1189248664,148909482.072,0.0,0.0,0.0,5.04099868107e+29,0.0,0.0,0.0,2.15804988809e+76,2
1505973342565841913,913,1505973342565841913,odom,2,1,22.3036075651,114.180668503,-66.9650124433,148948073.446,0.0,0.0,0.0,5.042838438e+29,0.0,0.0,0.0,2.15855209215e+76,2
1505973343566349029,914,1505973343566349029,odom,2,1,22.3036378189,114.180700217,-66.7899941681,149024498.113,0.0,0.0,0.0,5.04542589843e+29,0.0,0.0,0.0,2.15928277942e+76,2
1505973344566437959,915,1505973344566437959,odom,2,1,22.3036701717,114.180732448,-66.5780884968,149149067.618,0.0,0.0,0.0,5.04884231117e+29,0.0,0.0,0.0,2.16010509825e+76,2
1505973345566206932,916,1505973345566206932,odom,2,1,22.3037021815,114.18076174,-66.3581979657,149341645.377,0.0,0.0,0.0,5.05324969399e+29,0.0,0.0,0.0,2.16104200946e+76,2
1505973346565722942,917,1505973346565722942,odom,2,1,22.3037281567,114.180783708,-66.1659628311,149616340.143,0.0,0.0,0.0,5.05875764531e+29,0.0,0.0,0.0,2.1619564608e+76,2
1505973347566461086,918,1505973347566461086,odom,2,1,22.3037466615,114.180798316,-66.0417895261,149985104.475,0.0,0.0,0.0,5.06534296764e+29,0.0,0.0,0.0,2.16277979785e+76,2
1505973348566559076,919,1505973348566559076,odom,2,1,22.3037606486,114.180808733,-65.9172136821,150445249.84,0.0,0.0,0.0,5.07287571556e+29,0.0,0.0,0.0,2.16330598289e+76,2
1505973349565802097,920,1505973349565802097,odom,2,1,22.3037712692,114.180815935,-65.8324433938,151034347.573,0.0,0.0,0.0,5.08187067717e+29,0.0,0.0,0.0,2.16367210015e+76,2
1505973350566935062,921,1505973350566935062,odom,2,1,22.3037842205,114.180823447,-65.7217116738,151783596.44,0.0,0.0,0.0,5.09260489259e+29,0.0,0.0,0.0,2.16394672877e+76,2
1505973351566437959,922,1505973351566437959,odom,2,1,22.3038006663,114.180833748,-65.9858786706,129615170.816,0.0,0.0,0.0,2.51850076235e+29,0.0,0.0,0.0,3.55319594198e+75,2
1505973352566715002,923,1505973352566715002,odom,2,1,22.303816082,114.180843271,-66.481227166,112631268.881,0.0,0.0,0.0,1.33145334296e+29,0.0,0.0,0.0,6.91150576501e+74,2
1505973353566240072,924,1505973353566240072,odom,2,1,22.3038297689,114.180851747,-67.188420617,99386425.8216,0.0,0.0,0.0,7.45034055644e+28,0.0,0.0,0.0,1.55228988876e+74,2
1505973354566296100,925,1505973354566296100,odom,2,1,22.3038477956,114.180856922,-66.568363958,76674705.8339,0.0,0.0,0.0,2.37151580898e+28,0.0,0.0,0.0,8.08075877396e+72,2
1505973355566431999,926,1505973355566431999,odom,2,1,22.3038675999,114.18086531,-66.1600763518,60955044.9298,0.0,0.0,0.0,8.44991911625e+27,0.0,0.0,0.0,5.61302260899e+71,2
1505973356566850900,927,1505973356566850900,odom,2,1,22.3038890565,114.180875276,-65.9415982738,49750666.2122,0.0,0.0,0.0,3.31426115515e+27,0.0,0.0,0.0,4.98107981628e+70,2
