%time,field.header.seq,field.header.stamp,field.header.frame_id,field.status.status,field.status.service,field.latitude,field.longitude,field.altitude,field.position_covariance0,field.position_covariance1,field.position_covariance2,field.position_covariance3,field.position_covariance4,field.position_covariance5,field.position_covariance6,field.position_covariance7,field.position_covariance8,field.position_covariance_type
1504580172080182075,2,1504580172080182075,odom,2,1,22.3053060773,114.181353937,10.2222151952,4.25522466868,0.0,0.0,0.0,4.31950950963,0.0,0.0,0.0,4.65302819007,2
1504580173079853057,3,1504580173079853057,odom,2,1,22.3053545109,114.181366941,10.4902732018,4.25671011772,0.0,0.0,0.0,4.32160584811,0.0,0.0,0.0,4.65155356703,2
1504580174079771041,4,1504580174079771041,odom,2,1,22.3054017579,114.18137698,10.7373786215,4.25931653255,0.0,0.0,0.0,4.32437205728,0.0,0.0,0.0,4.65578494311,2
1504580175079849958,5,1504580175079849958,odom,2,1,22.3054474339,114.181384305,10.9936874453,4.26283885144,0.0,0.0,0.0,4.3271972454,0.0,0.0,0.0,4.65887900352,2
1504580176080224990,6,1504580176080224990,odom,2,1,22.3054946713,114.181389103,11.2874588296,4.26775750087,0.0,0.0,0.0,4.33125166638,0.0,0.0,0.0,4.66715531329,2
1504580177079521894,7,1504580177079521894,odom,2,1,22.3055419466,114.181390702,11.6262081554,4.27365494203,0.0,0.0,0.0,4.33596835347,0.0,0.0,0.0,4.67608072278,2
1504580178079783916,8,1504580178079783916,odom,2,1,22.3055875035,114.181387772,11.920770308,4.28074390304,0.0,0.0,0.0,4.34151304262,0.0,0.0,0.0,4.68584551936,2
1504580179080070972,9,1504580179080070972,odom,2,1,22.3056346868,114.181381089,12.1871627178,4.28692424302,0.0,0.0,0.0,4.34611592946,0.0,0.0,0.0,4.69076850729,2
1504580180080594062,10,1504580180080594062,odom,2,1,22.3056835592,114.181370298,12.4681758974,4.29304397776,0.0,0.0,0.0,4.3503685263,0.0,0.0,0.0,4.69506659201,2
1504580181080501079,11,1504580181080501079,odom,2,1,22.3057337153,114.181354616,12.7446072111,4.30399005295,0.0,0.0,0.0,4.35819689081,0.0,0.0,0.0,4.70607479539,2
1504580182080306053,12,1504580182080306053,odom,2,1,22.3057866084,114.181334102,13.0725768292,4.31684985255,0.0,0.0,0.0,4.36725528623,0.0,0.0,0.0,4.71801316837,2
1504580183080375909,13,1504580183080375909,odom,2,1,22.3058426993,114.181308086,13.4086958636,4.32916495754,0.0,0.0,0.0,4.37510246955,0.0,0.0,0.0,4.72851797994,2
1504580184079823970,14,1504580184079823970,odom,2,1,22.3058983993,114.181277581,13.7084332034,4.33687776158,0.0,0.0,0.0,4.37796803574,0.0,0.0,0.0,4.72659292608,2
1504580185080580949,15,1504580185080580949,odom,2,1,22.3059515363,114.181242952,13.9335137364,4.35654067203,0.0,0.0,0.0,4.39164758376,0.0,0.0,0.0,4.74169482124,2
1504580186080533981,16,1504580186080533981,odom,2,1,22.306003656,114.181204297,14.0892378883,4.37931539881,0.0,0.0,0.0,4.40801777974,0.0,0.0,0.0,4.75780569449,2
1504580187079905986,17,1504580187079905986,odom,2,1,22.3060528831,114.181163933,14.1780370735,4.40651812475,0.0,0.0,0.0,4.4272320145,0.0,0.0,0.0,4.77501203631,2
1504580188079931020,18,1504580188079931020,odom,2,1,22.3060969416,114.181122812,14.2279567337,4.4244394915,0.0,0.0,0.0,4.43119415735,0.0,0.0,0.0,4.79334195895,2
1504580189079602956,19,1504580189079602956,odom,2,1,22.3061373357,114.181080768,14.2121364847,4.45444306971,0.0,0.0,0.0,4.45110299426,0.0,0.0,0.0,4.81212553918,2
1504580190079499959,20,1504580190079499959,odom,2,1,22.306175003,114.181036581,14.1295132414,4.49256197058,0.0,0.0,0.0,4.47655687775,0.0,0.0,0.0,4.8325365928,2
1504580191079462051,21,1504580191079462051,odom,2,1,22.3062099228,114.180986518,13.9593106443,4.536253889,0.0,0.0,0.0,4.50616913379,0.0,0.0,0.0,4.85408336207,2
1504580192079499006,22,1504580192079499006,odom,2,1,22.3062380959,114.180935536,13.7658219729,4.58641516011,0.0,0.0,0.0,4.54057622331,0.0,0.0,0.0,4.8767673527,2
1504580193080926895,23,1504580193080926895,odom,2,1,22.3062612737,114.180884971,13.5771950027,4.6439909844,0.0,0.0,0.0,4.58051833567,0.0,0.0,0.0,4.90049263864,2
1504580194079700946,24,1504580194079700946,odom,2,1,22.3062820917,114.180830404,13.3765471131,4.70887620577,0.0,0.0,0.0,4.60207144984,0.0,0.0,0.0,4.92267186588,2
1504580195080785989,25,1504580195080785989,odom,2,1,22.306297529,114.180770703,13.2074555997,4.75326164689,0.0,0.0,0.0,4.64451595813,0.0,0.0,0.0,4.94331979822,2
1504580196080106973,26,1504580196080106973,odom,2,1,22.3063050758,114.180710553,13.0437260643,4.80407244814,0.0,0.0,0.0,4.68648210208,0.0,0.0,0.0,4.96567972766,2
1504580197080341100,27,1504580197080341100,odom,2,1,22.3063058382,114.180652191,12.8326409282,4.88829366985,0.0,0.0,0.0,4.73356402575,0.0,0.0,0.0,4.99281532223,2
1504580198080080986,28,1504580198080080986,odom,2,1,22.3063008832,114.180594636,12.6188575123,4.97737835284,0.0,0.0,0.0,4.6847785467,0.0,0.0,0.0,5.01540161941,2
1504580199079924106,29,1504580199079924106,odom,2,1,22.3062875305,114.180538451,12.3871726459,4.94392681366,0.0,0.0,0.0,4.60030354681,0.0,0.0,0.0,5.03326837062,2
1504580200080017089,30,1504580200080017089,odom,2,1,22.3062693169,114.180477472,12.0335681895,5.00501044314,0.0,0.0,0.0,4.55725001049,0.0,0.0,0.0,5.04458431704,2
1504580201081738948,31,1504580201081738948,odom,2,1,22.306243982,114.180418206,11.8124078987,5.10880749362,0.0,0.0,0.0,4.53103852328,0.0,0.0,0.0,5.06732859869,2
1504580202081114053,32,1504580202081114053,odom,2,1,22.3062117725,114.180363469,11.5604253253,5.21978465106,0.0,0.0,0.0,4.5119105921,0.0,0.0,0.0,5.07193064895,2
1504580203079997062,33,1504580203079997062,odom,2,1,22.3061746666,114.180308336,11.4783698255,5.23883573029,0.0,0.0,0.0,4.50522422666,0.0,0.0,0.0,5.08439631351,2
1504580204080267906,34,1504580204080267906,odom,2,1,22.30613245,114.180248201,11.4483000096,5.30148360624,0.0,0.0,0.0,4.50867495313,0.0,0.0,0.0,5.10377892182,2
1504580205080890893,35,1504580205080890893,odom,2,1,22.3060866595,114.180185722,11.5125309536,5.43704292426,0.0,0.0,0.0,4.51715544928,0.0,0.0,0.0,5.13411215795,2
1504580206080785989,36,1504580206080785989,odom,2,1,22.3060350374,114.180121732,11.6504379204,5.23058888442,0.0,0.0,0.0,4.51401078773,0.0,0.0,0.0,5.1602746483,2
1504580207080791950,37,1504580207080791950,odom,2,1,22.3059841451,114.180057293,11.8669481957,4.98735444237,0.0,0.0,0.0,4.50937316576,0.0,0.0,0.0,5.18599535666,2
1504580208081120014,38,1504580208081120014,odom,2,1,22.305928589,114.179995094,12.119648546,4.70624823059,0.0,0.0,0.0,4.4970596768,0.0,0.0,0.0,5.21534147646,2
1504580209080333948,39,1504580209080333948,odom,2,1,22.3058828228,114.17993016,12.417839949,4.62455435256,0.0,0.0,0.0,4.48690445339,0.0,0.0,0.0,5.23931365471,2
1504580210079986095,40,1504580210079986095,odom,2,1,22.3058370926,114.179865645,12.6670917058,4.61300493177,0.0,0.0,0.0,4.47981758851,0.0,0.0,0.0,5.2600047981,2
1504580211080179929,41,1504580211080179929,odom,2,1,22.3057970651,114.179798649,12.9136268785,4.61208411534,0.0,0.0,0.0,4.48138514326,0.0,0.0,0.0,5.28386528641,2
1504580212081003904,42,1504580212081003904,odom,2,1,22.3057606947,114.179729299,13.2046412025,4.61327480851,0.0,0.0,0.0,4.48359560871,0.0,0.0,0.0,5.30769717444,2
1504580213080703973,43,1504580213080703973,odom,2,1,22.3057267329,114.179658013,13.3552924255,4.59409807661,0.0,0.0,0.0,4.46581764233,0.0,0.0,0.0,5.289438412,2
1504580214081060886,44,1504580214081060886,odom,2,1,22.3056958821,114.179585279,13.5112446323,4.59222243485,0.0,0.0,0.0,4.46611950161,0.0,0.0,0.0,5.29985339992,2
1504580215081032991,45,1504580215081032991,odom,2,1,22.305668331,114.179511493,13.5195004782,4.58448886311,0.0,0.0,0.0,4.45544064778,0.0,0.0,0.0,5.28154393861,2
1504580216080456972,46,1504580216080456972,odom,2,1,22.3056428485,114.179436253,13.7800038606,4.58171072275,0.0,0.0,0.0,4.45170695098,0.0,0.0,0.0,5.27170417509,2
1504580217080595970,47,1504580217080595970,odom,2,1,22.3056215796,114.179358026,13.8410022277,4.5796077881,0.0,0.0,0.0,4.44836525149,0.0,0.0,0.0,5.2577634439,2
1504580218080560922,48,1504580218080560922,odom,2,1,22.3056035298,114.179277913,13.8635640256,4.58287994192,0.0,0.0,0.0,4.4489416332,0.0,0.0,0.0,5.23866864019,2
1504580219080189943,49,1504580219080189943,odom,2,1,22.3055893499,114.179195419,13.932938219,4.58646139512,0.0,0.0,0.0,4.44949088271,0.0,0.0,0.0,5.24725686739,2
1504580220080812931,50,1504580220080812931,odom,2,1,22.3055790965,114.17911314,14.0248134229,4.58918856897,0.0,0.0,0.0,4.44760886381,0.0,0.0,0.0,5.24403896662,2
1504580221081722021,51,1504580221081722021,odom,2,1,22.3055704954,114.17904382,14.2017283011,4.59003730317,0.0,0.0,0.0,4.4451120073,0.0,0.0,0.0,5.22660550526,2
1504580222080032110,52,1504580222080032110,odom,2,1,22.305559808,114.178985015,14.4202171769,4.59194620106,0.0,0.0,0.0,4.44450160036,0.0,0.0,0.0,5.20360465213,2
1504580223080173969,53,1504580223080173969,odom,2,1,22.3055448388,114.178929701,14.364510606,4.59173448367,0.0,0.0,0.0,4.44251450223,0.0,0.0,0.0,5.19003012395,2
1504580224080877065,54,1504580224080877065,odom,2,1,22.3055241004,114.17887572,14.1873866599,4.59107586976,0.0,0.0,0.0,4.4405033421,0.0,0.0,0.0,5.18626447209,2
1504580225080619096,55,1504580225080619096,odom,2,1,22.3054971112,114.178825238,14.1049746163,4.58994400299,0.0,0.0,0.0,4.43847842243,0.0,0.0,0.0,5.17922065243,2
1504580226080602884,56,1504580226080602884,odom,2,1,22.3054652675,114.178780397,13.9632829074,4.58756662634,0.0,0.0,0.0,4.43570006376,0.0,0.0,0.0,5.16517194329,2
1504580227080656051,57,1504580227080656051,odom,2,1,22.3054273184,114.178737806,13.7514325194,4.57575567065,0.0,0.0,0.0,4.42980008615,0.0,0.0,0.0,5.13916042448,2
1504580228081341981,58,1504580228081341981,odom,2,1,22.3053805267,114.178693054,13.5074198646,4.56426174265,0.0,0.0,0.0,4.42383704088,0.0,0.0,0.0,5.11579021286,2
1504580229080833911,59,1504580229080833911,odom,2,1,22.3053287374,114.17865154,13.1859856136,4.55307808955,0.0,0.0,0.0,4.41783018611,0.0,0.0,0.0,5.09405819479,2
1504580230080761909,60,1504580230080761909,odom,2,1,22.3052737589,114.178614795,12.9312636433,4.54209973368,0.0,0.0,0.0,4.41192335468,0.0,0.0,0.0,5.07384709733,2
1504580231080735921,61,1504580231080735921,odom,2,1,22.3052170851,114.178583384,12.6158499261,4.53334689927,0.0,0.0,0.0,4.40719396243,0.0,0.0,0.0,5.05977565772,2
1504580232080945968,62,1504580232080945968,odom,2,1,22.3051577347,114.178555307,12.2903372822,4.52487339402,0.0,0.0,0.0,4.40270828224,0.0,0.0,0.0,5.04673229215,2
1504580233081031084,63,1504580233081031084,odom,2,1,22.3050906847,114.178528214,12.1495707864,4.51589553076,0.0,0.0,0.0,4.39804182545,0.0,0.0,0.0,5.03324008971,2
1504580234081080913,64,1504580234081080913,odom,2,1,22.3050141552,114.178502634,12.0582293123,4.50683269765,0.0,0.0,0.0,4.39355239102,0.0,0.0,0.0,5.02116288494,2
1504580235081290006,65,1504580235081290006,odom,2,1,22.3049337081,114.1784795,12.0429116515,4.49971138253,0.0,0.0,0.0,4.39028844561,0.0,0.0,0.0,5.01361827052,2
1504580236080168962,66,1504580236080168962,odom,2,1,22.3048531252,114.178457521,12.0583213009,4.49270155091,0.0,0.0,0.0,4.38733215908,0.0,0.0,0.0,5.00449682558,2
1504580237081790924,67,1504580237081790924,odom,2,1,22.3047745298,114.178435476,12.0245344648,4.48604661749,0.0,0.0,0.0,4.38488363431,0.0,0.0,0.0,5.00172618523,2
1504580238080425024,68,1504580238080425024,odom,2,1,22.3047012133,114.178415323,11.9486334305,4.47878568608,0.0,0.0,0.0,4.38224600564,0.0,0.0,0.0,4.99830448384,2
1504580239080482006,69,1504580239080482006,odom,2,1,22.3046318087,114.178396566,11.8424113849,4.47315956283,0.0,0.0,0.0,4.38106281227,0.0,0.0,0.0,5.00023442885,2
1504580240080624103,70,1504580240080624103,odom,2,1,22.3045617573,114.178377147,11.7774087032,4.46849301808,0.0,0.0,0.0,4.38005438132,0.0,0.0,0.0,5.00439096571,2
1504580241080740928,71,1504580241080740928,odom,2,1,22.3044885079,114.178356554,11.7185260113,4.46264824521,0.0,0.0,0.0,4.37909539284,0.0,0.0,0.0,5.00867263247,2
1504580242080655097,72,1504580242080655097,odom,2,1,22.3044133194,114.17833582,11.6427978603,4.45618732097,0.0,0.0,0.0,4.37836380777,0.0,0.0,0.0,5.01124670333,2
1504580243080897092,73,1504580243080897092,odom,2,1,22.3043389276,114.178315997,11.554055349,4.45063371541,0.0,0.0,0.0,4.37786747048,0.0,0.0,0.0,5.01275582793,2
1504580244080962896,74,1504580244080962896,odom,2,1,22.3042695597,114.17829791,11.4458936322,4.44491807832,0.0,0.0,0.0,4.37747680724,0.0,0.0,0.0,5.01223147572,2
1504580245080347061,75,1504580245080347061,odom,2,1,22.3042077536,114.17828142,11.3136305511,4.43838966991,0.0,0.0,0.0,4.37684458542,0.0,0.0,0.0,5.00922061908,2
1504580246080615997,76,1504580246080615997,odom,2,1,22.3041553122,114.178265538,11.2009122027,4.43151564671,0.0,0.0,0.0,4.3757337166,0.0,0.0,0.0,5.00287443815,2
1504580247080838918,77,1504580247080838918,odom,2,1,22.3041121455,114.178250229,11.0514669744,4.42621222488,0.0,0.0,0.0,4.37467662809,0.0,0.0,0.0,5.00048068261,2
1504580248080394983,78,1504580248080394983,odom,2,1,22.3040753418,114.178234963,10.8697813731,4.42206014328,0.0,0.0,0.0,4.37482483646,0.0,0.0,0.0,5.00247843059,2
1504580249080544948,79,1504580249080544948,odom,2,1,22.304040994,114.178219167,10.7255625622,4.41890938639,0.0,0.0,0.0,4.37537505877,0.0,0.0,0.0,5.00732527081,2
1504580250080701112,80,1504580250080701112,odom,2,1,22.3040056594,114.17820191,10.586392059,4.41527708004,0.0,0.0,0.0,4.37586605141,0.0,0.0,0.0,5.01082270619,2
1504580251080363988,81,1504580251080363988,odom,2,1,22.3039705855,114.178183289,10.4245189605,4.41406454332,0.0,0.0,0.0,4.37714621762,0.0,0.0,0.0,5.01862104219,2
1504580252080641984,82,1504580252080641984,odom,2,1,22.3039389136,114.178164295,10.1767298849,4.39931466568,0.0,0.0,0.0,4.35813351085,0.0,0.0,0.0,5.01562955588,2
1504580253081278085,83,1504580253081278085,odom,2,1,22.3039104383,114.17814634,10.0031768084,4.39308554972,0.0,0.0,0.0,4.35546662669,0.0,0.0,0.0,5.01942476911,2
1504580254081073999,84,1504580254081073999,odom,2,1,22.3038823552,114.178128008,9.89115325361,4.39286848179,0.0,0.0,0.0,4.35691866652,0.0,0.0,0.0,5.02901969884,2
1504580255080656051,85,1504580255080656051,odom,2,1,22.3038532421,114.1781067,9.72357310262,4.38757868193,0.0,0.0,0.0,4.35436981891,0.0,0.0,0.0,5.03417344356,2
1504580256081129074,86,1504580256081129074,odom,2,1,22.3038281716,114.178087116,9.60047636926,4.38808772295,0.0,0.0,0.0,4.35694458734,0.0,0.0,0.0,5.04591835548,2
1504580257081080913,87,1504580257081080913,odom,2,1,22.3038097094,114.178071703,9.47275086958,4.37710932624,0.0,0.0,0.0,4.34131215431,0.0,0.0,0.0,5.04719102333,2
1504580258080562114,88,1504580258080562114,odom,2,1,22.3037947725,114.178059276,9.37573787849,4.36721847821,0.0,0.0,0.0,4.32673888481,0.0,0.0,0.0,5.04911981844,2
1504580259080617904,89,1504580259080617904,odom,2,1,22.3037830942,114.178049097,9.25512897409,4.35825955144,0.0,0.0,0.0,4.31351101027,0.0,0.0,0.0,5.05168378697,2
1504580260080354928,90,1504580260080354928,odom,2,1,22.3037731445,114.178040445,9.20114761218,4.35087972145,0.0,0.0,0.0,4.31090349069,0.0,0.0,0.0,5.05761628041,2
1504580261080845117,91,1504580261080845117,odom,2,1,22.3037633592,114.178031374,9.14935201034,4.34416492167,0.0,0.0,0.0,4.30873900109,0.0,0.0,0.0,5.06491655872,2
1504580262081332921,92,1504580262081332921,odom,2,1,22.3037530251,114.17802169,9.11334509496,4.34280181865,0.0,0.0,0.0,4.30936209742,0.0,0.0,0.0,5.07811769576,2
1504580263081135034,93,1504580263081135034,odom,2,1,22.303741628,114.178011505,9.04645920265,4.34321737977,0.0,0.0,0.0,4.31161311574,0.0,0.0,0.0,5.0897598915,2
1504580264081079006,94,1504580264081079006,odom,2,1,22.3037286155,114.17800001,9.01799911633,4.33828417224,0.0,0.0,0.0,4.3035113923,0.0,0.0,0.0,5.09902410122,2
1504580265080338001,95,1504580265080338001,odom,2,1,22.3037145589,114.177987078,8.997918237,4.33752069703,0.0,0.0,0.0,4.30524065396,0.0,0.0,0.0,5.10680357251,2
1504580266080581903,96,1504580266080581903,odom,2,1,22.3037018408,114.177975235,8.99583945703,4.339381231,0.0,0.0,0.0,4.30862720933,0.0,0.0,0.0,5.1256481269,2
1504580267081415891,97,1504580267081415891,odom,2,1,22.3036947257,114.177968478,9.01077415794,4.34079347501,0.0,0.0,0.0,4.31049244608,0.0,0.0,0.0,5.1386236991,2
1504580268081439971,98,1504580268081439971,odom,2,1,22.3036901184,114.177964487,8.90128022432,4.34263029465,0.0,0.0,0.0,4.31028800694,0.0,0.0,0.0,5.1447917747,2
1504580269081295013,99,1504580269081295013,odom,2,1,22.3036843594,114.177958875,8.94423623104,4.33972116039,0.0,0.0,0.0,4.30527551664,0.0,0.0,0.0,5.12654185346,2
1504580270081116914,100,1504580270081116914,odom,2,1,22.303675958,114.177951616,8.84112663288,4.3374131761,0.0,0.0,0.0,4.30123403845,0.0,0.0,0.0,5.11252619919,2
1504580271080457925,101,1504580271080457925,odom,2,1,22.3036720806,114.177945436,9.11076376494,4.3358995644,0.0,0.0,0.0,4.29852454184,0.0,0.0,0.0,5.10385736292,2
1504580272081286907,102,1504580272081286907,odom,2,1,22.3036712657,114.177944339,9.21119114943,4.33653877156,0.0,0.0,0.0,4.29774746667,0.0,0.0,0.0,5.10949393715,2
1504580273081300020,103,1504580273081300020,odom,2,1,22.303671332,114.177943921,9.39861244243,4.33713363417,0.0,0.0,0.0,4.29647845132,0.0,0.0,0.0,5.10944411834,2
1504580274081051111,104,1504580274081051111,odom,2,1,22.3036712489,114.177944078,9.44337921031,4.33477831312,0.0,0.0,0.0,4.29367544793,0.0,0.0,0.0,5.09644452758,2
1504580275081620931,105,1504580275081620931,odom,2,1,22.3036706152,114.177944729,9.29271610919,4.33271496586,0.0,0.0,0.0,4.29064736518,0.0,0.0,0.0,5.06379256038,2
1504580276081470966,106,1504580276081470966,odom,2,1,22.3036705055,114.177945747,9.0437271446,4.32756840289,0.0,0.0,0.0,4.28604230911,0.0,0.0,0.0,5.01197801707,2
1504580277081792116,107,1504580277081792116,odom,2,1,22.3036713796,114.177946677,8.87420681771,4.32355529847,0.0,0.0,0.0,4.28306561736,0.0,0.0,0.0,4.98010340863,2
1504580278080914974,108,1504580278080914974,odom,2,1,22.3036720763,114.177947224,8.77195868827,4.32192652906,0.0,0.0,0.0,4.28199128766,0.0,0.0,0.0,4.96921377135,2
1504580279081057071,109,1504580279081057071,odom,2,1,22.3036724558,114.177947582,8.7175874291,4.32148872336,0.0,0.0,0.0,4.28174291382,0.0,0.0,0.0,4.96657018462,2
1504580280082406044,110,1504580280082406044,odom,2,1,22.303672604,114.177947737,8.70732868928,4.32147872505,0.0,0.0,0.0,4.28172522392,0.0,0.0,0.0,4.96634365693,2
1504580281081350088,111,1504580281081350088,odom,2,1,22.3036727564,114.177948056,8.68077477161,4.32149229419,0.0,0.0,0.0,4.28158441496,0.0,0.0,0.0,4.96588652923,2
1504580282081837892,112,1504580282081837892,odom,2,1,22.3036720072,114.177948171,8.5045937635,4.3207503392,0.0,0.0,0.0,4.28043688849,0.0,0.0,0.0,4.95812425111,2
1504580283080753087,113,1504580283080753087,odom,2,1,22.3036705986,114.177948798,8.0961903818,4.31939030024,0.0,0.0,0.0,4.27851889989,0.0,0.0,0.0,4.94101904507,2
1504580284081161022,114,1504580284081161022,odom,2,1,22.3036703561,114.177948185,8.42263718601,4.3181363026,0.0,0.0,0.0,4.27673393456,0.0,0.0,0.0,4.91876284423,2
1504580285081168889,115,1504580285081168889,odom,2,1,22.303670286,114.177947689,8.5865191007,4.3172351052,0.0,0.0,0.0,4.27541459948,0.0,0.0,0.0,4.89685856417,2
1504580286081017017,116,1504580286081017017,odom,2,1,22.3036699746,114.177947644,8.50346202962,4.31664582525,0.0,0.0,0.0,4.27451596049,0.0,0.0,0.0,4.87858264596,2
1504580287081867933,117,1504580287081867933,odom,2,1,22.3036695195,114.177948205,8.20865454432,4.31626918481,0.0,0.0,0.0,4.27390849713,0.0,0.0,0.0,4.86456313058,2
1504580288081298112,118,1504580288081298112,odom,2,1,22.3036695407,114.177948098,8.26320817787,4.31602738186,0.0,0.0,0.0,4.27350027375,0.0,0.0,0.0,4.85431279148,2
1504580289081330060,119,1504580289081330060,odom,2,1,22.3036693572,114.177948269,8.16033278592,4.31586832712,0.0,0.0,0.0,4.27322414475,0.0,0.0,0.0,4.84700526263,2
1504580290080418109,120,1504580290080418109,odom,2,1,22.3036692749,114.177948344,8.12610233948,4.31575920327,0.0,0.0,0.0,4.27303206553,0.0,0.0,0.0,4.84177907553,2
1504580291081091880,121,1504580291081091880,odom,2,1,22.3036692384,114.177948406,8.10299731791,4.31568074992,0.0,0.0,0.0,4.272894367,0.0,0.0,0.0,4.83804782184,2
1504580292081563949,122,1504580292081563949,odom,2,1,22.3036691048,114.177948624,7.99683322292,4.31562298063,0.0,0.0,0.0,4.27279550925,0.0,0.0,0.0,4.83539330541,2
1504580293081682920,123,1504580293081682920,odom,2,1,22.3036690227,114.177948794,7.92794026993,4.31557947588,0.0,0.0,0.0,4.27272207354,0.0,0.0,0.0,4.83351340496,2
1504580294081284046,124,1504580294081284046,odom,2,1,22.3036689176,114.177948988,7.83674979024,4.31554524294,0.0,0.0,0.0,4.27266699759,0.0,0.0,0.0,4.83216524832,2
1504580295081465005,125,1504580295081465005,odom,2,1,22.3036689384,114.177948985,7.84398540109,4.3155167157,0.0,0.0,0.0,4.27262463196,0.0,0.0,0.0,4.83118471663,2
1504580296080878973,126,1504580296080878973,odom,2,1,22.3036689332,114.177949072,7.82708236203,4.31549674674,0.0,0.0,0.0,4.27259144584,0.0,0.0,0.0,4.83049095897,2
1504580297081377029,127,1504580297081377029,odom,2,1,22.3036689163,114.177949142,7.80897065904,4.3154839096,0.0,0.0,0.0,4.27256390862,0.0,0.0,0.0,4.83000083813,2
1504580298081340074,128,1504580298081340074,odom,2,1,22.303668899,114.177949164,7.80750503577,4.31547463836,0.0,0.0,0.0,4.27254060803,0.0,0.0,0.0,4.82966081609,2
1504580299081615924,129,1504580299081615924,odom,2,1,22.3036688944,114.177949192,7.81253292132,4.31546608031,0.0,0.0,0.0,4.27252083793,0.0,0.0,0.0,4.82942457074,2
1504580300081327915,130,1504580300081327915,odom,2,1,22.3036689073,114.177949167,7.83644884825,4.31545823544,0.0,0.0,0.0,4.27250318614,0.0,0.0,0.0,4.82926335588,2
1504580301081003904,131,1504580301081003904,odom,2,1,22.3036689048,114.177949162,7.84835096076,4.31544825109,0.0,0.0,0.0,4.27248906476,0.0,0.0,0.0,4.82915242403,2
1504580302081185102,132,1504580302081185102,odom,2,1,22.3036689055,114.177949176,7.84635617211,4.31543612726,0.0,0.0,0.0,4.27247635555,0.0,0.0,0.0,4.82907501266,2
1504580303081564903,133,1504580303081564903,odom,2,1,22.3036688912,114.177949155,7.84980563633,4.31542257714,0.0,0.0,0.0,4.27246505851,0.0,0.0,0.0,4.82902154368,2
1504580304080516099,134,1504580304080516099,odom,2,1,22.3036688896,114.177949131,7.8603255162,4.31540760074,0.0,0.0,0.0,4.27245446756,0.0,0.0,0.0,4.82898323791,2
1504580305081418991,135,1504580305081418991,odom,2,1,22.3036688656,114.177949117,7.86219443381,4.31539405071,0.0,0.0,0.0,4.2724445827,0.0,0.0,0.0,4.8289577009,2
1504580306081345081,136,1504580306081345081,odom,2,1,22.303668831,114.177949139,7.85480079241,4.3153840665,0.0,0.0,0.0,4.27243540393,0.0,0.0,0.0,4.82894174033,2
1504580307081358909,137,1504580307081358909,odom,2,1,22.3036688036,114.177949113,7.8555526901,4.31537550863,0.0,0.0,0.0,4.27242551911,0.0,0.0,0.0,4.828931366,2
1504580308080948114,138,1504580308080948114,odom,2,1,22.3036687732,114.177949147,7.85350282211,4.31537051654,0.0,0.0,0.0,4.27241634037,0.0,0.0,0.0,4.82892418377,2
1504580309082161903,139,1504580309082161903,odom,2,1,22.3036687875,114.177949157,7.85450097732,4.31536695077,0.0,0.0,0.0,4.27240574955,0.0,0.0,0.0,4.82891939563,2
1504580310081547975,140,1504580310081547975,odom,2,1,22.3036687978,114.177949215,7.85440006386,4.31536409816,0.0,0.0,0.0,4.27239515875,0.0,0.0,0.0,4.82891540552,2
1504580311082084894,141,1504580311082084894,odom,2,1,22.3036687839,114.177949223,7.85520481411,4.3153619587,0.0,0.0,0.0,4.27238456797,0.0,0.0,0.0,4.82891221343,2
1504580312080944061,142,1504580312080944061,odom,2,1,22.3036687722,114.177949243,7.85529788584,4.31535910609,0.0,0.0,0.0,4.27237327118,0.0,0.0,0.0,4.82890902134,2
1504580313081064939,143,1504580313081064939,odom,2,1,22.3036687952,114.177949286,7.85557597782,4.31535554032,0.0,0.0,0.0,4.27236126836,0.0,0.0,0.0,4.82890423322,2
1504580314081398963,144,1504580314081398963,odom,2,1,22.3036688161,114.1779493,7.85609647073,4.31535126141,0.0,0.0,0.0,4.27234997163,0.0,0.0,0.0,4.82889944509,2
1504580315081154108,145,1504580315081154108,odom,2,1,22.3036688146,114.177949284,7.85549194366,4.31534769566,0.0,0.0,0.0,4.27233938097,0.0,0.0,0.0,4.828895455,2
1504580316081517934,146,1504580316081517934,odom,2,1,22.303668809,114.177949261,7.85308798309,4.31534412991,0.0,0.0,0.0,4.27233020241,0.0,0.0,0.0,4.82889385896,2
1504580317080806016,147,1504580317080806016,odom,2,1,22.3036687857,114.177949243,7.85236885305,4.31533771156,0.0,0.0,0.0,4.27232172992,0.0,0.0,0.0,4.82889306094,2
1504580318081366062,148,1504580318081366062,odom,2,1,22.3036687436,114.177949258,7.84879021067,4.31532986693,0.0,0.0,0.0,4.27231325745,0.0,0.0,0.0,4.82889226292,2
1504580319080926895,149,1504580319080926895,odom,2,1,22.3036687508,114.177949278,7.84560255241,4.31531774343,0.0,0.0,0.0,4.27230619706,0.0,0.0,0.0,4.82888907085,2
1504580320081242084,150,1504580320081242084,odom,2,1,22.3036687516,114.17794929,7.84441742115,4.31530561997,0.0,0.0,0.0,4.27229913669,0.0,0.0,0.0,4.82888587878,2
1504580321081054925,151,1504580321081054925,odom,2,1,22.3036687353,114.17794931,7.84637383744,4.31529492283,0.0,0.0,0.0,4.27229207633,0.0,0.0,0.0,4.82888348472,2
1504580322081305980,152,1504580322081305980,odom,2,1,22.3036687271,114.177949353,7.84642799757,4.31528565199,0.0,0.0,0.0,4.27228501598,0.0,0.0,0.0,4.82888029265,2
1504580323081394910,153,1504580323081394910,odom,2,1,22.3036687403,114.177949356,7.85266992915,4.31527923373,0.0,0.0,0.0,4.27227724961,0.0,0.0,0.0,4.82887710059,2
1504580324080967903,154,1504580324080967903,odom,2,1,22.30366874,114.177949341,7.85431734193,4.31527424176,0.0,0.0,0.0,4.27226877722,0.0,0.0,0.0,4.82887390853,2
1504580325081451892,155,1504580325081451892,odom,2,1,22.3036687386,114.177949334,7.85493251216,4.3152713892,0.0,0.0,0.0,4.27226101088,0.0,0.0,0.0,4.82887311051,2
1504580326081454992,156,1504580326081454992,odom,2,1,22.3036687518,114.177949368,7.85155831929,4.31526711038,0.0,0.0,0.0,4.27225253853,0.0,0.0,0.0,4.82887231249,2
1504580327080336093,157,1504580327080336093,odom,2,1,22.3036687798,114.177949375,7.84967330378,4.31526283155,0.0,0.0,0.0,4.27224477222,0.0,0.0,0.0,4.82887231249,2
1504580328081985950,158,1504580328081985950,odom,2,1,22.303668781,114.177949376,7.84812325239,4.3152578396,0.0,0.0,0.0,4.27223700592,0.0,0.0,0.0,4.82887151448,2
1504580329081532001,159,1504580329081532001,odom,2,1,22.3036687689,114.17794938,7.84634326771,4.31525142138,0.0,0.0,0.0,4.27223065169,0.0,0.0,0.0,4.82887071646,2
1504580330081681013,160,1504580330081681013,odom,2,1,22.3036687379,114.177949382,7.84293282218,4.3152435769,0.0,0.0,0.0,4.27222359144,0.0,0.0,0.0,4.82886991845,2
1504580331082437038,161,1504580331082437038,odom,2,1,22.3036687352,114.177949379,7.84008697141,4.31523430618,0.0,0.0,0.0,4.27221723723,0.0,0.0,0.0,4.82886832242,2
1504580332081038951,162,1504580332081038951,odom,2,1,22.3036687015,114.177949368,7.83626687992,4.31522432234,0.0,0.0,0.0,4.27221158905,0.0,0.0,0.0,4.82886672639,2
1504580333080857038,163,1504580333080857038,odom,2,1,22.303668696,114.177949357,7.8340060534,4.31521790417,0.0,0.0,0.0,4.27220523486,0.0,0.0,0.0,4.82886592838,2
1504580334081537008,164,1504580334081537008,odom,2,1,22.3036686874,114.177949359,7.8291072892,4.31521219914,0.0,0.0,0.0,4.27219888067,0.0,0.0,0.0,4.82886513036,2
1504580335081583976,165,1504580335081583976,odom,2,1,22.3036686801,114.177949357,7.82601175364,4.3152086335,0.0,0.0,0.0,4.2721925265,0.0,0.0,0.0,4.82886513036,2
1504580336081526041,166,1504580336081526041,odom,2,1,22.3036686702,114.177949344,7.82356541604,4.31520578099,0.0,0.0,0.0,4.27218617233,0.0,0.0,0.0,4.82886353433,2
1504580337081480026,167,1504580337081480026,odom,2,1,22.3036686827,114.177949327,7.82233960368,4.31520221536,0.0,0.0,0.0,4.27217840614,0.0,0.0,0.0,4.82886114029,2
1504580338081842899,168,1504580338081842899,odom,2,1,22.3036686724,114.1779493,7.82306655217,4.31519579722,0.0,0.0,0.0,4.27217063996,0.0,0.0,0.0,4.82885395817,2
1504580339081861972,169,1504580339081861972,odom,2,1,22.3036686761,114.177949315,7.82514728606,4.3151865266,0.0,0.0,0.0,4.27216146177,0.0,0.0,0.0,4.82884597806,2
1504580340081044912,170,1504580340081044912,odom,2,1,22.3036686936,114.177949312,7.82887630444,4.31517654287,0.0,0.0,0.0,4.27215157759,0.0,0.0,0.0,4.82883719994,2
1504580341082503080,171,1504580341082503080,odom,2,1,22.3036687388,114.177949313,7.83706003148,4.31516513293,0.0,0.0,0.0,4.27214169343,0.0,0.0,0.0,4.82882682583,2
1504580342082087039,172,1504580342082087039,odom,2,1,22.3036687434,114.177949321,7.84284354374,4.31515800173,0.0,0.0,0.0,4.27213110329,0.0,0.0,0.0,4.82882123978,2
1504580343081841945,173,1504580343081841945,odom,2,1,22.3036687592,114.177949321,7.84825386945,4.31515372301,0.0,0.0,0.0,4.27212121917,0.0,0.0,0.0,4.82881804775,2
1504580344082329988,174,1504580344082329988,odom,2,1,22.3036687677,114.177949331,7.85169738159,4.31515158366,0.0,0.0,0.0,4.2721127471,0.0,0.0,0.0,4.82881724974,2
1504580345081597089,175,1504580345081597089,odom,2,1,22.3036687707,114.177949347,7.85457145516,4.31515015742,0.0,0.0,0.0,4.27210498104,0.0,0.0,0.0,4.82881724974,2
1504580346082292079,176,1504580346082292079,odom,2,1,22.3036687785,114.177949342,7.85680402257,4.31514659183,0.0,0.0,0.0,4.272097921,0.0,0.0,0.0,4.82881645174,2
1504580347081947088,177,1504580347081947088,odom,2,1,22.3036680957,114.177948639,7.85346029233,4.31514017378,0.0,0.0,0.0,4.27209156698,0.0,0.0,0.0,4.82881485573,2
1504580348081182956,178,1504580348081182956,odom,2,1,22.3036633306,114.177943669,7.84661278408,4.31117635478,0.0,0.0,0.0,4.2694180672,0.0,0.0,0.0,4.81765648314,2
1504580349081300973,179,1504580349081300973,odom,2,1,22.3036498456,114.177929586,7.80674703512,4.30813948944,0.0,0.0,0.0,4.26732306678,0.0,0.0,0.0,4.80870639343,2
1504580350081393957,180,1504580350081393957,odom,2,1,22.3036296151,114.177908484,7.73211421259,4.30102719528,0.0,0.0,0.0,4.26349053895,0.0,0.0,0.0,4.80365327825,2
1504580351081513881,181,1504580351081513881,odom,2,1,22.3036086843,114.177888513,7.64190198388,4.30087011485,0.0,0.0,0.0,4.26313685401,0.0,0.0,0.0,4.80302697322,2
1504580352082096099,182,1504580352082096099,odom,2,1,22.3035841872,114.177867066,7.56353185512,4.3006185138,0.0,0.0,0.0,4.26269655023,0.0,0.0,0.0,4.80113982027,2
1504580353081499099,183,1504580353081499099,odom,2,1,22.3035518438,114.177840958,7.52066441812,4.29411185517,0.0,0.0,0.0,4.25931301309,0.0,0.0,0.0,4.79719966597,2
1504580354081022024,184,1504580354081022024,odom,2,1,22.3035132831,114.177811394,7.43495141715,4.29364564612,0.0,0.0,0.0,4.25949321288,0.0,0.0,0.0,4.79847383456,2
1504580355081056118,185,1504580355081056118,odom,2,1,22.3034754928,114.177779496,7.35356788989,4.29330435926,0.0,0.0,0.0,4.25991136206,0.0,0.0,0.0,4.80016399765,2
1504580356081501007,186,1504580356081501007,odom,2,1,22.3034404532,114.177744719,7.27295491099,4.28743152575,0.0,0.0,0.0,4.25114657137,0.0,0.0,0.0,4.79643231513,2
1504580357081690073,187,1504580357081690073,odom,2,1,22.3034075275,114.177709847,7.19873572048,4.28188585085,0.0,0.0,0.0,4.24281418194,0.0,0.0,0.0,4.7924857281,2
1504580358081500053,188,1504580358081500053,odom,2,1,22.3033761767,114.177676408,7.12000241596,4.28218801563,0.0,0.0,0.0,4.24291304721,0.0,0.0,0.0,4.79227110031,2
1504580359081520080,189,1504580359081520080,odom,2,1,22.3033448798,114.177643093,7.0343394056,4.28245410812,0.0,0.0,0.0,4.2427756181,0.0,0.0,0.0,4.79120443985,2
1504580360081351041,190,1504580360081351041,odom,2,1,22.3033134263,114.177609629,6.9543528324,4.28281293456,0.0,0.0,0.0,4.24260594136,0.0,0.0,0.0,4.79024567756,2
1504580361081599950,191,1504580361081599950,odom,2,1,22.3032848739,114.177579318,6.89766568784,4.28330203438,0.0,0.0,0.0,4.24253933458,0.0,0.0,0.0,4.78987362497,2
1504580362082027912,192,1504580362082027912,odom,2,1,22.3032576511,114.177553073,6.81891787332,4.28397525731,0.0,0.0,0.0,4.24252391,0.0,0.0,0.0,4.78964486655,2
1504580363082442045,193,1504580363082442045,odom,2,1,22.3032299226,114.17753069,6.7541356096,4.28204577616,0.0,0.0,0.0,4.24188313841,0.0,0.0,0.0,4.78113317199,2
1504580364080980062,194,1504580364080980062,odom,2,1,22.3032014146,114.17751179,6.60025784932,4.28041991137,0.0,0.0,0.0,4.24123895907,0.0,0.0,0.0,4.77217364626,2
1504580365081432104,195,1504580365081432104,odom,2,1,22.3031716919,114.177497085,6.53483624104,4.27900397361,0.0,0.0,0.0,4.24069018705,0.0,0.0,0.0,4.76381817329,2
1504580366082340955,196,1504580366082340955,odom,2,1,22.3031409506,114.177486562,6.46169445571,4.2787649654,0.0,0.0,0.0,4.24128171441,0.0,0.0,0.0,4.76058597451,2
1504580367081840038,197,1504580367081840038,odom,2,1,22.303109927,114.177479456,6.43298369367,4.27672333303,0.0,0.0,0.0,4.24114153459,0.0,0.0,0.0,4.75416979482,2
1504580368081487894,198,1504580368081487894,odom,2,1,22.3030732091,114.177475795,6.3993081525,4.27476179578,0.0,0.0,0.0,4.24130554544,0.0,0.0,0.0,4.74849279193,2
1504580369081860065,199,1504580369081860065,odom,2,1,22.3030293066,114.177477841,6.33968597837,4.27286470943,0.0,0.0,0.0,4.24187192226,0.0,0.0,0.0,4.74304281949,2
1504580370082103013,200,1504580370082103013,odom,2,1,22.3029824055,114.177488896,6.33733232412,4.27056687417,0.0,0.0,0.0,4.24217056227,0.0,0.0,0.0,4.73792246394,2
1504580371082391977,201,1504580371082391977,odom,2,1,22.3029385955,114.177509689,6.3209789386,4.26948509597,0.0,0.0,0.0,4.24408137437,0.0,0.0,0.0,4.7344433731,2
1504580372081217050,202,1504580372081217050,odom,2,1,22.3029014963,114.177537856,6.38211679552,4.27060216184,0.0,0.0,0.0,4.24663794856,0.0,0.0,0.0,4.73631839904,2
1504580373081564903,203,1504580373081564903,odom,2,1,22.3028710795,114.17757015,6.47929388843,4.26639722092,0.0,0.0,0.0,4.2408443687,0.0,0.0,0.0,4.73380340484,2
1504580374081789970,204,1504580374081789970,odom,2,1,22.3028458629,114.177607341,6.56571182143,4.2626099038,0.0,0.0,0.0,4.24113172218,0.0,0.0,0.0,4.73313771061,2
1504580375082218885,205,1504580375082218885,odom,2,1,22.3028249115,114.17764927,6.61037050746,4.26275008874,0.0,0.0,0.0,4.24032367773,0.0,0.0,0.0,4.73540896569,2
1504580376082047939,206,1504580376082047939,odom,2,1,22.3028046957,114.177694492,6.64355901722,4.26088227407,0.0,0.0,0.0,4.23813509237,0.0,0.0,0.0,4.73562809029,2
1504580377081535100,207,1504580377081535100,odom,2,1,22.3027848329,114.177741328,6.69729854725,4.26187664967,0.0,0.0,0.0,4.23733882299,0.0,0.0,0.0,4.73818633728,2
1504580378081132888,208,1504580378081132888,odom,2,1,22.3027661925,114.177786978,6.74258790631,4.26496900595,0.0,0.0,0.0,4.23770857592,0.0,0.0,0.0,4.742905651,2
1504580379081924915,209,1504580379081924915,odom,2,1,22.3027487916,114.177830012,6.84108809195,4.26883249217,0.0,0.0,0.0,4.23627596303,0.0,0.0,0.0,4.74562232565,2
1504580380081254005,210,1504580380081254005,odom,2,1,22.3027325005,114.177870004,6.89711184241,4.27340069576,0.0,0.0,0.0,4.23705592777,0.0,0.0,0.0,4.75107761753,2
1504580381082079887,211,1504580381082079887,odom,2,1,22.3027173054,114.177907166,6.96171541885,4.27935685333,0.0,0.0,0.0,4.23794669147,0.0,0.0,0.0,4.75608485855,2
1504580382081351995,212,1504580382081351995,odom,2,1,22.3027035386,114.177942041,7.02530616429,4.28652894418,0.0,0.0,0.0,4.23894271976,0.0,0.0,0.0,4.76129251089,2
1504580383081989049,213,1504580383081989049,odom,2,1,22.3026904921,114.177974717,7.05341341719,4.29312911438,0.0,0.0,0.0,4.23710914424,0.0,0.0,0.0,4.76468188086,2
1504580384082164049,214,1504580384082164049,odom,2,1,22.3026811011,114.177996965,7.10402083956,4.29815942687,0.0,0.0,0.0,4.23692008876,0.0,0.0,0.0,4.76926758438,2
1504580385081398010,215,1504580385081398010,odom,2,1,22.3026755809,114.178009492,7.13604999613,4.29394651192,0.0,0.0,0.0,4.22948989475,0.0,0.0,0.0,4.76968217728,2
1504580386081635951,216,1504580386081635951,odom,2,1,22.3026704743,114.178021921,7.14086807892,4.28532839433,0.0,0.0,0.0,4.22198760796,0.0,0.0,0.0,4.76936452968,2
1504580387081952095,217,1504580387081952095,odom,2,1,22.3026661882,114.178033943,7.10567846894,4.28505787437,0.0,0.0,0.0,4.22065726146,0.0,0.0,0.0,4.77025841092,2
1504580388081302881,218,1504580388081302881,odom,2,1,22.3026624928,114.178042949,7.09493493941,4.28482490097,0.0,0.0,0.0,4.21931966405,0.0,0.0,0.0,4.77111145908,2
1504580389081909894,219,1504580389081909894,odom,2,1,22.3026624199,114.178044621,7.07510701846,4.28496935715,0.0,0.0,0.0,4.21829548222,0.0,0.0,0.0,4.77210424596,2
1504580390081161022,220,1504580390081161022,odom,2,1,22.3026623413,114.17804496,7.04587843269,4.28407012583,0.0,0.0,0.0,4.21741512165,0.0,0.0,0.0,4.77272099758,2
1504580391081717967,221,1504580391081717967,odom,2,1,22.3026626835,114.178045415,6.99692158215,4.28306490955,0.0,0.0,0.0,4.216221387,0.0,0.0,0.0,4.77169732819,2
1504580392081442117,222,1504580392081442117,odom,2,1,22.3026624699,114.178045422,6.93359594606,4.27896720225,0.0,0.0,0.0,4.21631127119,0.0,0.0,0.0,4.76079682294,2
1504580393081547975,223,1504580393081547975,odom,2,1,22.3026623683,114.178045848,6.84591131285,4.26908787767,0.0,0.0,0.0,4.21527458394,0.0,0.0,0.0,4.73752080961,2
1504580394082071065,224,1504580394082071065,odom,2,1,22.3026624931,114.178046723,6.79661277588,4.2598022451,0.0,0.0,0.0,4.21343383844,0.0,0.0,0.0,4.71130944038,2
1504580395082642078,225,1504580395082642078,odom,2,1,22.3026626174,114.17804726,6.78196112998,4.25702457612,0.0,0.0,0.0,4.21265613356,0.0,0.0,0.0,4.6996784941,2
1504580396081734895,226,1504580396081734895,odom,2,1,22.3026627623,114.178047532,6.79362585302,4.25643999752,0.0,0.0,0.0,4.21245703077,0.0,0.0,0.0,4.69436833143,2
1504580397081897974,227,1504580397081897974,odom,2,1,22.3026620525,114.178049636,6.76802917477,4.25623038479,0.0,0.0,0.0,4.21221756297,0.0,0.0,0.0,4.68647203379,2
1504580398082068920,228,1504580398082068920,odom,2,1,22.3026579375,114.178059931,7.07700172346,4.22818932653,0.0,0.0,0.0,4.1908644736,0.0,0.0,0.0,4.64203129985,2
1504580399081732034,229,1504580399081732034,odom,2,1,22.3026471272,114.178085143,7.30392370373,4.20649944353,0.0,0.0,0.0,4.17349743875,0.0,0.0,0.0,4.60399828696,2
1504580400081912994,230,1504580400081912994,odom,2,1,22.3026314713,114.178122243,7.3691382315,4.20597810389,0.0,0.0,0.0,4.17304708326,0.0,0.0,0.0,4.60283661114,2
1504580401081499099,231,1504580401081499099,odom,2,1,22.3026130192,114.1781689,7.53151606768,4.20548810355,0.0,0.0,0.0,4.17283123331,0.0,0.0,0.0,4.60281683399,2
1504580402081757068,232,1504580402081757068,odom,2,1,22.3025927249,114.178224074,7.70063406508,4.20475981138,0.0,0.0,0.0,4.17271262404,0.0,0.0,0.0,4.60321467515,2
1504580403082371950,233,1504580403082371950,odom,2,1,22.302573512,114.178279516,7.9321417613,4.20404067716,0.0,0.0,0.0,4.1725340269,0.0,0.0,0.0,4.60364754712,2
1504580404081161975,234,1504580404081161975,odom,2,1,22.3025563134,114.178332085,8.15477730427,4.20358910985,0.0,0.0,0.0,4.17248575871,0.0,0.0,0.0,4.60474778808,2
1504580405082505941,235,1504580405082505941,odom,2,1,22.3025389841,114.178388137,8.45969776623,4.20378223578,0.0,0.0,0.0,4.17246989929,0.0,0.0,0.0,4.60749116528,2
1504580406081648111,236,1504580406081648111,odom,2,1,22.3025215923,114.178449975,8.82607840933,4.20409347897,0.0,0.0,0.0,4.17264849368,0.0,0.0,0.0,4.61005104286,2
1504580407081027984,237,1504580407081027984,odom,2,1,22.3025045379,114.178516251,9.19351516198,4.2035835524,0.0,0.0,0.0,4.17235612692,0.0,0.0,0.0,4.61213823109,2
1504580408081026077,238,1504580408081026077,odom,2,1,22.3024898974,114.178581237,9.54238688201,4.2045159173,0.0,0.0,0.0,4.17223408365,0.0,0.0,0.0,4.61454511836,2
1504580409081458091,239,1504580409081458091,odom,2,1,22.302477161,114.178643174,9.81088323705,4.20636249873,0.0,0.0,0.0,4.17280089109,0.0,0.0,0.0,4.61899319475,2
1504580410081727027,240,1504580410081727027,odom,2,1,22.3024664131,114.178700525,10.0499554267,4.20850337929,0.0,0.0,0.0,4.17227131681,0.0,0.0,0.0,4.62130132075,2
1504580411082006931,241,1504580411082006931,odom,2,1,22.3024575435,114.178752448,10.1418402987,4.21104826459,0.0,0.0,0.0,4.17257884786,0.0,0.0,0.0,4.62444659456,2
1504580412081804990,242,1504580412081804990,odom,2,1,22.3024494086,114.178802945,10.1476072473,4.2143461014,0.0,0.0,0.0,4.173876106,0.0,0.0,0.0,4.62922015816,2
1504580413080935955,243,1504580413080935955,odom,2,1,22.3024412881,114.178864052,10.1764595127,4.21785005117,0.0,0.0,0.0,4.17518066733,0.0,0.0,0.0,4.63348328726,2
1504580414081168889,244,1504580414081168889,odom,2,1,22.3024347488,114.178932652,10.135355291,4.22296871928,0.0,0.0,0.0,4.17744236668,0.0,0.0,0.0,4.63879817155,2
1504580415081295967,245,1504580415081295967,odom,2,1,22.3024298572,114.179002579,9.97219346557,4.22981282751,0.0,0.0,0.0,4.18030212851,0.0,0.0,0.0,4.64492124159,2
1504580416081443071,246,1504580416081443071,odom,2,1,22.3024269255,114.179072189,9.73885050789,4.23830248905,0.0,0.0,0.0,4.18375633939,0.0,0.0,0.0,4.65135216888,2
1504580417082679033,247,1504580417082679033,odom,2,1,22.3024259326,114.17913853,9.45783351548,4.24847775389,0.0,0.0,0.0,4.18748397563,0.0,0.0,0.0,4.65757801625,2
1504580418081377983,248,1504580418081377983,odom,2,1,22.3024272946,114.179200014,9.13858998846,4.26043868275,0.0,0.0,0.0,4.19180233017,0.0,0.0,0.0,4.66367500763,2
1504580419082026004,249,1504580419082026004,odom,2,1,22.3024314997,114.179259692,8.7884244835,4.27418608304,0.0,0.0,0.0,4.19686719315,0.0,0.0,0.0,4.66938410267,2
1504580420082098007,250,1504580420082098007,odom,2,1,22.3024393093,114.179319769,8.42029019073,4.28994473553,0.0,0.0,0.0,4.20271112397,0.0,0.0,0.0,4.67467063894,2
1504580421081815958,251,1504580421081815958,odom,2,1,22.3024519622,114.179379829,8.12231851462,4.30567681358,0.0,0.0,0.0,4.20411849058,0.0,0.0,0.0,4.66784026924,2
1504580422081741094,252,1504580422081741094,odom,2,1,22.3024688634,114.17943874,7.89728684351,4.3258330325,0.0,0.0,0.0,4.21011097232,0.0,0.0,0.0,4.67209109347,2
1504580423081054925,253,1504580423081054925,odom,2,1,22.3024915706,114.179497055,7.67727104109,4.34961586305,0.0,0.0,0.0,4.21859176522,0.0,0.0,0.0,4.67695016445,2
1504580424081532955,254,1504580424081532955,odom,2,1,22.3025216253,114.179551908,7.50861262809,4.37689521767,0.0,0.0,0.0,4.22913274027,0.0,0.0,0.0,4.68194504824,2
1504580425081653118,255,1504580425081653118,odom,2,1,22.3025572577,114.179602531,7.40609763842,4.4078363956,0.0,0.0,0.0,4.24147026357,0.0,0.0,0.0,4.6872241166,2
1504580426081088066,256,1504580426081088066,odom,2,1,22.3025984965,114.179649956,7.35067001823,4.44260994487,0.0,0.0,0.0,4.25586956559,0.0,0.0,0.0,4.69265105232,2
1504580427082354068,257,1504580427082354068,odom,2,1,22.3026452179,114.179695561,7.30630074255,4.4798220305,0.0,0.0,0.0,4.27127409455,0.0,0.0,0.0,4.69775586507,2
1504580428081801891,258,1504580428081801891,odom,2,1,22.3026961137,114.179738229,7.34372538142,4.52035160523,0.0,0.0,0.0,4.28883253296,0.0,0.0,0.0,4.70155995312,2
1504580429081788063,259,1504580429081788063,odom,2,1,22.3027502674,114.179778076,7.36829663441,4.55946474284,0.0,0.0,0.0,4.30744894404,0.0,0.0,0.0,4.70456703402,2
1504580430082099914,260,1504580430082099914,odom,2,1,22.3028067306,114.179815128,7.42850567121,4.58765457113,0.0,0.0,0.0,4.3272115476,0.0,0.0,0.0,4.70218623738,2
1504580431082714080,261,1504580431082714080,odom,2,1,22.3028709109,114.179852505,7.51558508072,4.50227685397,0.0,0.0,0.0,4.33785761319,0.0,0.0,0.0,4.66939567756,2
1504580432081861019,262,1504580432081861019,odom,2,1,22.302927514,114.179887484,7.63055426255,4.51186883676,0.0,0.0,0.0,4.36164600542,0.0,0.0,0.0,4.67065828471,2
1504580433082647085,263,1504580433082647085,odom,2,1,22.3029855137,114.179924617,7.6785356719,4.50629126391,0.0,0.0,0.0,4.38464740731,0.0,0.0,0.0,4.66810178231,2
1504580434081893920,264,1504580434081893920,odom,2,1,22.303042788,114.179963015,7.70445803553,4.48352966418,0.0,0.0,0.0,4.41252199524,0.0,0.0,0.0,4.66867731696,2
1504580435081948041,265,1504580435081948041,odom,2,1,22.3031001819,114.180002407,7.71191329882,4.48006190438,0.0,0.0,0.0,4.44218413971,0.0,0.0,0.0,4.66571322347,2
1504580436082839012,266,1504580436082839012,odom,2,1,22.3031545408,114.180041221,7.71658947878,4.48731229807,0.0,0.0,0.0,4.47141531873,0.0,0.0,0.0,4.66642110278,2
1504580437082107067,267,1504580437082107067,odom,2,1,22.303205893,114.180078709,7.72465982474,4.49615457426,0.0,0.0,0.0,4.50195841504,0.0,0.0,0.0,4.66741061733,2
1504580438082581996,268,1504580438082581996,odom,2,1,22.3032522746,114.180115203,7.58239052631,4.50426835207,0.0,0.0,0.0,4.52482254549,0.0,0.0,0.0,4.66244510863,2
1504580439082689046,269,1504580439082689046,odom,2,1,22.3032897029,114.180149101,7.56721355207,4.51732192215,0.0,0.0,0.0,4.54248406923,0.0,0.0,0.0,4.66330276712,2
1504580440082112073,270,1504580440082112073,odom,2,1,22.3033207359,114.180178182,7.52365158685,4.53288318235,0.0,0.0,0.0,4.56235907554,0.0,0.0,0.0,4.66509719369,2
1504580441081661939,271,1504580441081661939,odom,2,1,22.3033447169,114.180202847,7.44151380099,4.55071604749,0.0,0.0,0.0,4.58073180693,0.0,0.0,0.0,4.66601394339,2
1504580442080961942,272,1504580442080961942,odom,2,1,22.3033628225,114.180219803,7.35647800565,4.57522863966,0.0,0.0,0.0,4.61025370026,0.0,0.0,0.0,4.66687842832,2
1504580443081866025,273,1504580443081866025,odom,2,1,22.3033774086,114.180233485,7.3147907285,4.60327705489,0.0,0.0,0.0,4.64669554052,0.0,0.0,0.0,4.67049156396,2
1504580444081865072,274,1504580444081865072,odom,2,1,22.3033899185,114.180249987,7.27077111136,4.61469458957,0.0,0.0,0.0,4.64295042241,0.0,0.0,0.0,4.66785801155,2
1504580445082168102,275,1504580445082168102,odom,2,1,22.3034067111,114.180268621,7.24647135381,4.62386581457,0.0,0.0,0.0,4.64896372929,0.0,0.0,0.0,4.66445966155,2
1504580446081830024,276,1504580446081830024,odom,2,1,22.3034232468,114.18028565,7.25065051019,4.63532369124,0.0,0.0,0.0,4.66004635219,0.0,0.0,0.0,4.6618718831,2
1504580447081974029,277,1504580447081974029,odom,2,1,22.3034381616,114.180300994,7.23703183141,4.651447486,0.0,0.0,0.0,4.67441957273,0.0,0.0,0.0,4.66088585355,2
1504580448081337928,278,1504580448081337928,odom,2,1,22.3034506992,114.180313979,7.21841446217,4.67379621432,0.0,0.0,0.0,4.69605752443,0.0,0.0,0.0,4.66551275428,2
1504580449081357002,279,1504580449081357002,odom,2,1,22.3034600305,114.180322881,7.21629815083,4.69384004994,0.0,0.0,0.0,4.7199238077,0.0,0.0,0.0,4.66963026822,2
1504580450082128047,280,1504580450082128047,odom,2,1,22.3034638711,114.180328137,7.19804292079,4.70868555431,0.0,0.0,0.0,4.74007067898,0.0,0.0,0.0,4.67109981469,2
1504580451082323074,281,1504580451082323074,odom,2,1,22.3034674202,114.180334027,7.21094588656,4.68304620167,0.0,0.0,0.0,4.71931465867,0.0,0.0,0.0,4.65109082551,2
1504580452081835031,282,1504580452081835031,odom,2,1,22.3034687232,114.180335779,7.22047647741,4.69116774841,0.0,0.0,0.0,4.72882118487,0.0,0.0,0.0,4.65289746946,2
1504580453082617044,283,1504580453082617044,odom,2,1,22.3034686932,114.180336042,7.23457276076,4.69820150951,0.0,0.0,0.0,4.73700645992,0.0,0.0,0.0,4.65498713212,2
1504580454082168102,284,1504580454082168102,odom,2,1,22.3034686661,114.1803362,7.25137067959,4.7050296531,0.0,0.0,0.0,4.74479343777,0.0,0.0,0.0,4.65714776965,2
1504580455082742929,285,1504580455082742929,odom,2,1,22.3034684863,114.180336473,7.25599136762,4.71734033964,0.0,0.0,0.0,4.75985437139,0.0,0.0,0.0,4.65986075808,2
1504580456082602024,286,1504580456082602024,odom,2,1,22.3034638364,114.180342369,7.44563261606,4.42259291834,0.0,0.0,0.0,4.36937551871,0.0,0.0,0.0,4.60392372398,2
1504580457082597017,287,1504580457082597017,odom,2,1,22.3034638254,114.180342881,7.51587098558,4.38546990905,0.0,0.0,0.0,4.3233345214,0.0,0.0,0.0,4.5667123215,2
1504580458082695007,288,1504580458082695007,odom,2,1,22.3034635025,114.180342723,7.5412036404,4.37508800906,0.0,0.0,0.0,4.30633433835,0.0,0.0,0.0,4.56658176181,2
1504580459082441091,289,1504580459082441091,odom,2,1,22.3034623996,114.180343914,7.57065034006,4.36174980214,0.0,0.0,0.0,4.28515489135,0.0,0.0,0.0,4.56550723889,2
1504580460082343101,290,1504580460082343101,odom,2,1,22.3034617846,114.18034451,7.62746183667,4.35400139954,0.0,0.0,0.0,4.27313940285,0.0,0.0,0.0,4.5635112897,2
1504580461082485914,291,1504580461082485914,odom,2,1,22.3034603189,114.180345852,7.770039564,4.35019814127,0.0,0.0,0.0,4.26747539578,0.0,0.0,0.0,4.56094484395,2
1504580462082163095,292,1504580462082163095,odom,2,1,22.3034595272,114.180346883,7.78311196156,4.34844004248,0.0,0.0,0.0,4.26499226524,0.0,0.0,0.0,4.55830978386,2
1504580463082485914,293,1504580463082485914,odom,2,1,22.3034596078,114.180347004,7.66758747771,4.3476640026,0.0,0.0,0.0,4.2639837741,0.0,0.0,0.0,4.55595180391,2
1504580464082443952,294,1504580464082443952,odom,2,1,22.3034595137,114.180347095,7.66730358452,4.34733135384,0.0,0.0,0.0,4.26360750098,0.0,0.0,0.0,4.55399690891,2
1504580465083101034,295,1504580465083101034,odom,2,1,22.3034594155,114.18034713,7.71492663585,4.34715965094,0.0,0.0,0.0,4.26347292446,0.0,0.0,0.0,4.55246113229,2
1504580466083091974,296,1504580466083091974,odom,2,1,22.3034593193,114.180347173,7.75899606105,4.34706841408,0.0,0.0,0.0,4.26343276371,0.0,0.0,0.0,4.55127786168,2
1504580467082432031,297,1504580467082432031,odom,2,1,22.3034593577,114.180347158,7.72162297927,4.34701094303,0.0,0.0,0.0,4.26341937687,0.0,0.0,0.0,4.55038591059,2
1504580468083050966,298,1504580468083050966,odom,2,1,22.3034593702,114.180347143,7.73500791192,4.34695634624,0.0,0.0,0.0,4.26340528552,0.0,0.0,0.0,4.54972646054,2
1504580469083121061,299,1504580469083121061,odom,2,1,22.3034593257,114.18034715,7.78348150849,4.34690749705,0.0,0.0,0.0,4.2633911942,0.0,0.0,0.0,4.54923400317,2
1504580470082555055,300,1504580470082555055,odom,2,1,22.3034592202,114.180347206,7.84802127816,4.34687157889,0.0,0.0,0.0,4.26337921662,0.0,0.0,0.0,4.5488761592,2
1504580471081861972,301,1504580471081861972,odom,2,1,22.3034595368,114.180347523,7.85566155706,4.34683997115,0.0,0.0,0.0,4.26337005732,0.0,0.0,0.0,4.5486183185,2
1504580472082201957,302,1504580472082201957,odom,2,1,22.303462852,114.180350624,7.85600058176,4.34461794844,0.0,0.0,0.0,4.2628296933,0.0,0.0,0.0,4.54457746717,2
1504580473083461999,303,1504580473083461999,odom,2,1,22.3034735388,114.180360564,7.84636896383,4.34259512948,0.0,0.0,0.0,4.26239435203,0.0,0.0,0.0,4.54070453871,2
1504580474082312107,304,1504580474082312107,odom,2,1,22.3034944515,114.180380261,7.85093684308,4.34102877412,0.0,0.0,0.0,4.26223375192,0.0,0.0,0.0,4.53717081282,2
1504580475082860946,305,1504580475082860946,odom,2,1,22.3035227015,114.18040762,7.84199704044,4.34176416607,0.0,0.0,0.0,4.2629656585,0.0,0.0,0.0,4.53711232809,2
1504580476082508087,306,1504580476082508087,odom,2,1,22.3035564759,114.180441335,7.85525222216,4.34356263436,0.0,0.0,0.0,4.26469836165,0.0,0.0,0.0,4.53881019154,2
1504580477082227945,307,1504580477082227945,odom,2,1,22.3035919578,114.180478024,7.95109141618,4.34624736855,0.0,0.0,0.0,4.26706002997,0.0,0.0,0.0,4.54098969702,2
1504580478082252025,308,1504580478082252025,odom,2,1,22.3036266447,114.180513848,8.05182370171,4.34844722868,0.0,0.0,0.0,4.26984495262,0.0,0.0,0.0,4.54206595575,2
1504580479082067012,309,1504580479082067012,odom,2,1,22.3036628791,114.180549831,8.17431328632,4.35233670544,0.0,0.0,0.0,4.27281104389,0.0,0.0,0.0,4.54332716911,2
1504580480082262039,310,1504580480082262039,odom,2,1,22.3037028196,114.180585218,8.30924179405,4.35667314636,0.0,0.0,0.0,4.2758689362,0.0,0.0,0.0,4.54570866375,2
1504580481082140922,311,1504580481082140922,odom,2,1,22.3037482548,114.180619243,8.47256414033,4.36102760116,0.0,0.0,0.0,4.27915459807,0.0,0.0,0.0,4.54833794271,2
1504580482082228899,312,1504580482082228899,odom,2,1,22.3038000545,114.180650652,8.61064029299,4.36291263838,0.0,0.0,0.0,4.28307269553,0.0,0.0,0.0,4.54627436762,2
1504580483081825971,313,1504580483081825971,odom,2,1,22.3038582165,114.180679285,8.73662797268,4.35914625995,0.0,0.0,0.0,4.28599414445,0.0,0.0,0.0,4.5404929328,2
1504580484082484960,314,1504580484082484960,odom,2,1,22.30391983,114.180707746,8.85656883381,4.35443530296,0.0,0.0,0.0,4.28933011758,0.0,0.0,0.0,4.53539036572,2
1504580485082504034,315,1504580485082504034,odom,2,1,22.3039851218,114.180736017,8.95567550138,4.33574335994,0.0,0.0,0.0,4.28757110988,0.0,0.0,0.0,4.51613211187,2
1504580486081770896,316,1504580486081770896,odom,2,1,22.304052095,114.180766256,9.09606667887,4.33544171495,0.0,0.0,0.0,4.28959027383,0.0,0.0,0.0,4.51725324202,2
1504580487082539081,317,1504580487082539081,odom,2,1,22.3041217073,114.180797959,9.24095564615,4.3369609006,0.0,0.0,0.0,4.29276871421,0.0,0.0,0.0,4.51884211063,2
1504580488082603931,318,1504580488082603931,odom,2,1,22.3041922026,114.180830535,9.37656180281,4.31942670515,0.0,0.0,0.0,4.28717433441,0.0,0.0,0.0,4.51770117472,2
1504580489082642078,319,1504580489082642078,odom,2,1,22.304264015,114.180863712,9.5100523252,4.30873472874,0.0,0.0,0.0,4.28382800288,0.0,0.0,0.0,4.51645006059,2
1504580490082075119,320,1504580490082075119,odom,2,1,22.304337172,114.180897734,9.60867231898,4.30135772262,0.0,0.0,0.0,4.28137922427,0.0,0.0,0.0,4.51561941074,2
1504580491082223892,321,1504580491082223892,odom,2,1,22.3044104788,114.18093199,9.74550856836,4.30399858824,0.0,0.0,0.0,4.28438943755,0.0,0.0,0.0,4.51625600472,2
1504580492081691026,322,1504580492081691026,odom,2,1,22.304483891,114.180966422,9.89542437252,4.30730728913,0.0,0.0,0.0,4.28827689415,0.0,0.0,0.0,4.51961584102,2
1504580493081968069,323,1504580493081968069,odom,2,1,22.3045578126,114.18100038,10.0554614402,4.30886646146,0.0,0.0,0.0,4.29112104929,0.0,0.0,0.0,4.52022162396,2
1504580494082834959,324,1504580494082834959,odom,2,1,22.3046326276,114.181034526,10.1480101729,4.30857665478,0.0,0.0,0.0,4.29269493523,0.0,0.0,0.0,4.51963152611,2
1504580495082972049,325,1504580495082972049,odom,2,1,22.3047072576,114.181070381,10.1689009387,4.27677916805,0.0,0.0,0.0,4.27675725802,0.0,0.0,0.0,4.49803557845,2
1504580496082106113,326,1504580496082106113,odom,2,1,22.3047834018,114.181107148,10.1445936812,4.24882741402,0.0,0.0,0.0,4.26092663574,0.0,0.0,0.0,4.47788204142,2
1504580497082454919,327,1504580497082454919,odom,2,1,22.3048620916,114.181142681,10.1677572913,4.24413257493,0.0,0.0,0.0,4.25843746329,0.0,0.0,0.0,4.47665897021,2
1504580498081639051,328,1504580498081639051,odom,2,1,22.304941957,114.181177822,10.183165933,4.24123825817,0.0,0.0,0.0,4.25707522931,0.0,0.0,0.0,4.47711693536,2
1504580499082865953,329,1504580499082865953,odom,2,1,22.3050196505,114.181212929,10.1990955565,4.2442447975,0.0,0.0,0.0,4.26157662239,0.0,0.0,0.0,4.48278952185,2
1504580500081804037,330,1504580500081804037,odom,2,1,22.3050933609,114.181245768,10.2245720979,4.24694815365,0.0,0.0,0.0,4.26620192343,0.0,0.0,0.0,4.48848116379,2
1504580501082490921,331,1504580501082490921,odom,2,1,22.3051653065,114.181277857,10.3041619826,4.24812040008,0.0,0.0,0.0,4.2639316294,0.0,0.0,0.0,4.49405823033,2
1504580502082134962,332,1504580502082134962,odom,2,1,22.3052379225,114.181307841,10.4568893751,4.25050590232,0.0,0.0,0.0,4.25972269708,0.0,0.0,0.0,4.49743202556,2
1504580503082572937,333,1504580503082572937,odom,2,1,22.305308905,114.181333692,10.6813442325,4.2521344587,0.0,0.0,0.0,4.24880986012,0.0,0.0,0.0,4.4958098212,2
1504580504082396030,334,1504580504082396030,odom,2,1,22.3053754986,114.181353084,11.0650824839,4.25154071511,0.0,0.0,0.0,4.25142829962,0.0,0.0,0.0,4.49180697555,2
1504580505082479953,335,1504580505082479953,odom,2,1,22.3054363045,114.181366112,11.3755720556,4.25096250963,0.0,0.0,0.0,4.2543211335,0.0,0.0,0.0,4.48977201639,2
1504580506082185983,336,1504580506082185983,odom,2,1,22.3054932424,114.181374343,11.705294271,4.25490120213,0.0,0.0,0.0,4.25828264203,0.0,0.0,0.0,4.49546063709,2
1504580507082823991,337,1504580507082823991,odom,2,1,22.3055482707,114.181377601,12.0815178342,4.25927993037,0.0,0.0,0.0,4.26251128399,0.0,0.0,0.0,4.50163702288,2
1504580508082185983,338,1504580508082185983,odom,2,1,22.3056003247,114.181375544,12.3996600322,4.2643269585,0.0,0.0,0.0,4.26729697394,0.0,0.0,0.0,4.50816235357,2
1504580509082151889,339,1504580509082151889,odom,2,1,22.3056516969,114.18136821,12.686228307,4.27005382451,0.0,0.0,0.0,4.27282092959,0.0,0.0,0.0,4.51509706771,2
1504580510082482099,340,1504580510082482099,odom,2,1,22.3057030495,114.181356744,13.0261048535,4.27623427773,0.0,0.0,0.0,4.2788512331,0.0,0.0,0.0,4.52174876633,2
1504580511082175970,341,1504580511082175970,odom,2,1,22.3057546436,114.181340847,13.3252968658,4.28350944089,0.0,0.0,0.0,4.28602035162,0.0,0.0,0.0,4.52902770449,2
1504580512081885099,342,1504580512081885099,odom,2,1,22.3058062795,114.181320739,13.6689545205,4.29050838995,0.0,0.0,0.0,4.29331854944,0.0,0.0,0.0,4.5361069585,2
1504580513082796096,343,1504580513082796096,odom,2,1,22.3058588405,114.181296541,13.9842039021,4.29611351014,0.0,0.0,0.0,4.30041525365,0.0,0.0,0.0,4.5438843165,2
1504580514082063913,344,1504580514082063913,odom,2,1,22.3059090766,114.181269921,14.2787452713,4.30352490502,0.0,0.0,0.0,4.30958714636,0.0,0.0,0.0,4.55309389078,2
1504580515082427978,345,1504580515082427978,odom,2,1,22.3059547923,114.181241779,14.4630272202,4.31587403302,0.0,0.0,0.0,4.32245866911,0.0,0.0,0.0,4.56364779507,2
1504580516081989049,346,1504580516081989049,odom,2,1,22.3059958902,114.181212973,14.575024154,4.3302124799,0.0,0.0,0.0,4.33726838547,0.0,0.0,0.0,4.57478105126,2
1504580517082026004,347,1504580517082026004,odom,2,1,22.3060350709,114.181182787,14.6507863952,4.34700088568,0.0,0.0,0.0,4.35425396492,0.0,0.0,0.0,4.58626887865,2
1504580518081737041,348,1504580518081737041,odom,2,1,22.3060753357,114.181148636,14.7092031529,4.36429936345,0.0,0.0,0.0,4.36696732587,0.0,0.0,0.0,4.59808493462,2
1504580519081871986,349,1504580519081871986,odom,2,1,22.3061150549,114.181111693,14.7215410247,4.38621645386,0.0,0.0,0.0,4.38783682071,0.0,0.0,0.0,4.61048912926,2
1504580520082197904,350,1504580520082197904,odom,2,1,22.306154552,114.181068778,14.6418954618,4.4114800776,0.0,0.0,0.0,4.41197730921,0.0,0.0,0.0,4.6235548216,2
1504580521081393003,351,1504580521081393003,odom,2,1,22.3061920542,114.181021041,14.4858785281,4.4402369684,0.0,0.0,0.0,4.43949370149,0.0,0.0,0.0,4.63736407734,2
1504580522082194089,352,1504580522082194089,odom,2,1,22.3062263481,114.180968886,14.2729531815,4.47289714366,0.0,0.0,0.0,4.47079908326,0.0,0.0,0.0,4.6519633085,2
1504580523083101034,353,1504580523083101034,odom,2,1,22.3062570457,114.180909609,14.0498188743,4.50999919002,0.0,0.0,0.0,4.50623168783,0.0,0.0,0.0,4.66716611136,2
1504580524082895994,354,1504580524082895994,odom,2,1,22.3062819643,114.180842619,13.7839574283,4.55201276216,0.0,0.0,0.0,4.54623154296,0.0,0.0,0.0,4.68313675075,2
1504580525082828998,355,1504580525082828998,odom,2,1,22.3062955448,114.180769732,13.5174207287,4.59939210656,0.0,0.0,0.0,4.59123899689,0.0,0.0,0.0,4.70000936502,2
1504580526082823991,356,1504580526082823991,odom,2,1,22.3062980669,114.180694146,13.2316625789,4.65275368104,0.0,0.0,0.0,4.64106403934,0.0,0.0,0.0,4.71777146914,2
1504580527082194089,357,1504580527082194089,odom,2,1,22.3062896915,114.180615717,12.8693741029,4.71255067165,0.0,0.0,0.0,4.68578279509,0.0,0.0,0.0,4.73628395949,2
1504580528082571029,358,1504580528082571029,odom,2,1,22.3062719735,114.180536466,12.5055991039,4.77667104314,0.0,0.0,0.0,4.72646091986,0.0,0.0,0.0,4.75507890208,2
1504580529082495927,359,1504580529082495927,odom,2,1,22.3062401485,114.180460603,12.1685271859,4.85093261291,0.0,0.0,0.0,4.76741181651,0.0,0.0,0.0,4.77511620056,2
1504580530082299947,360,1504580530082299947,odom,2,1,22.3061969377,114.180389828,11.9582745982,4.93320758919,0.0,0.0,0.0,4.80737707287,0.0,0.0,0.0,4.79607325612,2
1504580531082439899,361,1504580531082439899,odom,2,1,22.3061473005,114.180323718,11.9005211992,5.02550457933,0.0,0.0,0.0,4.87013180967,0.0,0.0,0.0,4.81855304484,2
1504580532082906007,362,1504580532082906007,odom,2,1,22.3060956794,114.180251004,11.9068112494,5.11904362085,0.0,0.0,0.0,4.85172872768,0.0,0.0,0.0,4.84171826464,2
1504580533082577943,363,1504580533082577943,odom,2,1,22.3060438408,114.180180466,12.0450601391,5.22853805883,0.0,0.0,0.0,4.87163708168,0.0,0.0,0.0,4.86687010568,2
1504580534081973075,364,1504580534081973075,odom,2,1,22.3059890696,114.180108129,12.2911201473,5.14346644622,0.0,0.0,0.0,4.82026461906,0.0,0.0,0.0,4.88751013238,2
1504580535082736015,365,1504580535082736015,odom,2,1,22.3059365842,114.180038881,12.5700991452,5.15633885234,0.0,0.0,0.0,4.84191190199,0.0,0.0,0.0,4.91517045559,2
1504580536082881927,366,1504580536082881927,odom,2,1,22.3058848833,114.179967875,12.8658460723,5.07011630729,0.0,0.0,0.0,4.8202431111,0.0,0.0,0.0,4.94421196508,2
1504580537082673072,367,1504580537082673072,odom,2,1,22.3058293478,114.179891843,13.1349034458,4.96677209845,0.0,0.0,0.0,4.8344456739,0.0,0.0,0.0,4.97496473228,2
1504580538082823991,368,1504580538082823991,odom,2,1,22.3057836336,114.179816367,13.4336070325,4.93305187741,0.0,0.0,0.0,4.8702678285,0.0,0.0,0.0,5.00741215974,2
