%time,field.header.seq,field.header.stamp,field.header.frame_id,field.status.status,field.status.service,field.latitude,field.longitude,field.altitude,field.position_covariance0,field.position_covariance1,field.position_covariance2,field.position_covariance3,field.position_covariance4,field.position_covariance5,field.position_covariance6,field.position_covariance7,field.position_covariance8,field.position_covariance_type
0,1,0,,0,0,22.3039325214,114.179111706,0.0,0.0,0.0,0.0,0.0,0.0,0.0,0.0,0.0,0.0,0
0,2,0,,0,0,22.3039853687,114.179122508,0.0,0.0,0.0,0.0,0.0,0.0,0.0,0.0,0.0,0.0,0
0,3,0,,0,0,22.3039607863,114.179101209,0.0,0.0,0.0,0.0,0.0,0.0,0.0,0.0,0.0,0.0,0
0,4,0,,0,0,22.3039570237,114.179094805,0.0,0.0,0.0,0.0,0.0,0.0,0.0,0.0,0.0,0.0,0
0,5,0,,0,0,22.3039460402,114.179088841,0.0,0.0,0.0,0.0,0.0,0.0,0.0,0.0,0.0,0.0,0
0,6,0,,0,0,22.3040123924,114.179123916,0.0,0.0,0.0,0.0,0.0,0.0,0.0,0.0,0.0,0.0,0
0,7,0,,0,0,22.3040011217,114.179126677,0.0,0.0,0.0,0.0,0.0,0.0,0.0,0.0,0.0,0.0,0
0,8,0,,0,0,22.3040029456,114.179129857,0.0,0.0,0.0,0.0,0.0,0.0,0.0,0.0,0.0,0.0,0
0,9,0,,0,0,22.3038814813,114.179167576,0.0,0.0,0.0,0.0,0.0,0.0,0.0,0.0,0.0,0.0,0
0,10,0,,0,0,22.3037546047,114.179200742,0.0,0.0,0.0,0.0,0.0,0.0,0.0,0.0,0.0,0.0,0
0,11,0,,0,0,22.3037729506,114.179209636,0.0,0.0,0.0,0.0,0.0,0.0,0.0,0.0,0.0,0.0,0
0,12,0,,0,0,22.3037987666,114.179209765,0.0,0.0,0.0,0.0,0.0,0.0,0.0,0.0,0.0,0.0,0
0,13,0,,0,0,22.3038033091,114.179206893,0.0,0.0,0.0,0.0,0.0,0.0,0.0,0.0,0.0,0.0,0
0,14,0,,0,0,22.3038028627,114.179208572,0.0,0.0,0.0,0.0,0.0,0.0,0.0,0.0,0.0,0.0,0
0,15,0,,0,0,22.3037957727,114.179224504,0.0,0.0,0.0,0.0,0.0,0.0,0.0,0.0,0.0,0.0,0
0,16,0,,0,0,22.3037710852,114.17929826,0.0,0.0,0.0,0.0,0.0,0.0,0.0,0.0,0.0,0.0,0
0,17,0,,0,0,22.303758687,114.179297214,0.0,0.0,0.0,0.0,0.0,0.0,0.0,0.0,0.0,0.0,0
0,18,0,,0,0,22.3037758652,114.179100092,0.0,0.0,0.0,0.0,0.0,0.0,0.0,0.0,0.0,0.0,0
0,19,0,,0,0,22.3037745568,114.179097523,0.0,0.0,0.0,0.0,0.0,0.0,0.0,0.0,0.0,0.0,0
0,20,0,,0,0,22.3037640328,114.179099955,0.0,0.0,0.0,0.0,0.0,0.0,0.0,0.0,0.0,0.0,0
0,21,0,,0,0,22.3040641336,114.17893359,0.0,0.0,0.0,0.0,0.0,0.0,0.0,0.0,0.0,0.0,0
0,22,0,,0,0,22.3040635695,114.178985029,0.0,0.0,0.0,0.0,0.0,0.0,0.0,0.0,0.0,0.0,0
0,23,0,,0,0,22.3037911753,114.179080229,0.0,0.0,0.0,0.0,0.0,0.0,0.0,0.0,0.0,0.0,0
0,24,0,,0,0,22.3040041289,114.179035331,0.0,0.0,0.0,0.0,0.0,0.0,0.0,0.0,0.0,0.0,0
0,25,0,,0,0,22.3040319717,114.179016666,0.0,0.0,0.0,0.0,0.0,0.0,0.0,0.0,0.0,0.0,0
0,26,0,,0,0,22.3039904318,114.178991545,0.0,0.0,0.0,0.0,0.0,0.0,0.0,0.0,0.0,0.0,0
0,27,0,,0,0,22.3039662692,114.178989049,0.0,0.0,0.0,0.0,0.0,0.0,0.0,0.0,0.0,0.0,0
0,28,0,,0,0,22.3039687139,114.178973518,0.0,0.0,0.0,0.0,0.0,0.0,0.0,0.0,0.0,0.0,0
0,29,0,,0,0,22.304003072,114.178969497,0.0,0.0,0.0,0.0,0.0,0.0,0.0,0.0,0.0,0.0,0
0,30,0,,0,0,22.3040111625,114.178966513,0.0,0.0,0.0,0.0,0.0,0.0,0.0,0.0,0.0,0.0,0
0,31,0,,0,0,22.3040905635,114.17895187,0.0,0.0,0.0,0.0,0.0,0.0,0.0,0.0,0.0,0.0,0
0,32,0,,0,0,22.3041068894,114.17895051,0.0,0.0,0.0,0.0,0.0,0.0,0.0,0.0,0.0,0.0,0
0,33,0,,0,0,22.304103198,114.178948133,0.0,0.0,0.0,0.0,0.0,0.0,0.0,0.0,0.0,0.0,0
0,34,0,,0,0,22.3041062146,114.178946625,0.0,0.0,0.0,0.0,0.0,0.0,0.0,0.0,0.0,0.0,0
0,35,0,,0,0,22.3041068657,114.17894885,0.0,0.0,0.0,0.0,0.0,0.0,0.0,0.0,0.0,0.0,0
0,36,0,,0,0,22.3041310978,114.178948717,0.0,0.0,0.0,0.0,0.0,0.0,0.0,0.0,0.0,0.0,0
0,37,0,,0,0,22.3040045934,114.178860188,0.0,0.0,0.0,0.0,0.0,0.0,0.0,0.0,0.0,0.0,0
0,38,0,,0,0,22.3040164655,114.178893652,0.0,0.0,0.0,0.0,0.0,0.0,0.0,0.0,0.0,0.0,0
0,39,0,,0,0,22.3040233308,114.178902215,0.0,0.0,0.0,0.0,0.0,0.0,0.0,0.0,0.0,0.0,0
0,40,0,,0,0,22.3039743026,114.178902924,0.0,0.0,0.0,0.0,0.0,0.0,0.0,0.0,0.0,0.0,0
0,41,0,,0,0,22.3039974221,114.178861857,0.0,0.0,0.0,0.0,0.0,0.0,0.0,0.0,0.0,0.0,0
0,42,0,,0,0,22.3040323512,114.178873066,0.0,0.0,0.0,0.0,0.0,0.0,0.0,0.0,0.0,0.0,0
0,43,0,,0,0,22.3041647558,114.178811669,0.0,0.0,0.0,0.0,0.0,0.0,0.0,0.0,0.0,0.0,0
0,44,0,,0,0,22.3041615127,114.178738192,0.0,0.0,0.0,0.0,0.0,0.0,0.0,0.0,0.0,0.0,0
0,45,0,,0,0,22.3042360748,114.178799441,0.0,0.0,0.0,0.0,0.0,0.0,0.0,0.0,0.0,0.0,0
0,46,0,,0,0,22.3041657967,114.178823001,0.0,0.0,0.0,0.0,0.0,0.0,0.0,0.0,0.0,0.0,0
0,47,0,,0,0,22.3041621038,114.178862407,0.0,0.0,0.0,0.0,0.0,0.0,0.0,0.0,0.0,0.0,0
0,48,0,,0,0,22.3041480002,114.178903409,0.0,0.0,0.0,0.0,0.0,0.0,0.0,0.0,0.0,0.0,0
0,49,0,,0,0,22.3041439234,114.178972312,0.0,0.0,0.0,0.0,0.0,0.0,0.0,0.0,0.0,0.0,0
0,50,0,,0,0,22.3041747878,114.178991994,0.0,0.0,0.0,0.0,0.0,0.0,0.0,0.0,0.0,0.0,0
0,51,0,,0,0,22.304160196,114.178986378,0.0,0.0,0.0,0.0,0.0,0.0,0.0,0.0,0.0,0.0,0
0,52,0,,0,0,22.304143005,114.179003578,0.0,0.0,0.0,0.0,0.0,0.0,0.0,0.0,0.0,0.0,0
0,53,0,,0,0,22.3041168293,114.179003209,0.0,0.0,0.0,0.0,0.0,0.0,0.0,0.0,0.0,0.0,0
0,54,0,,0,0,22.3041103535,114.179000779,0.0,0.0,0.0,0.0,0.0,0.0,0.0,0.0,0.0,0.0,0
0,55,0,,0,0,22.3040869741,114.178988169,0.0,0.0,0.0,0.0,0.0,0.0,0.0,0.0,0.0,0.0,0
0,56,0,,0,0,22.3041028528,114.178982871,0.0,0.0,0.0,0.0,0.0,0.0,0.0,0.0,0.0,0.0,0
0,57,0,,0,0,22.304096514,114.178977725,0.0,0.0,0.0,0.0,0.0,0.0,0.0,0.0,0.0,0.0,0
0,58,0,,0,0,22.304104038,114.178971695,0.0,0.0,0.0,0.0,0.0,0.0,0.0,0.0,0.0,0.0,0
0,59,0,,0,0,22.3040964412,114.178967066,0.0,0.0,0.0,0.0,0.0,0.0,0.0,0.0,0.0,0.0,0
0,60,0,,0,0,22.3040858157,114.178963796,0.0,0.0,0.0,0.0,0.0,0.0,0.0,0.0,0.0,0.0,0
0,61,0,,0,0,22.3040821891,114.178963254,0.0,0.0,0.0,0.0,0.0,0.0,0.0,0.0,0.0,0.0,0
0,62,0,,0,0,22.30407736,114.178964499,0.0,0.0,0.0,0.0,0.0,0.0,0.0,0.0,0.0,0.0,0
0,63,0,,0,0,22.3040770448,114.178973923,0.0,0.0,0.0,0.0,0.0,0.0,0.0,0.0,0.0,0.0,0
0,64,0,,0,0,22.304234438,114.179055496,0.0,0.0,0.0,0.0,0.0,0.0,0.0,0.0,0.0,0.0,0
0,65,0,,0,0,22.3042684389,114.179099514,0.0,0.0,0.0,0.0,0.0,0.0,0.0,0.0,0.0,0.0,0
0,66,0,,0,0,22.304059446,114.179061156,0.0,0.0,0.0,0.0,0.0,0.0,0.0,0.0,0.0,0.0,0
0,67,0,,0,0,22.3042979602,114.179238552,0.0,0.0,0.0,0.0,0.0,0.0,0.0,0.0,0.0,0.0,0
0,68,0,,0,0,22.3043322513,114.179316486,0.0,0.0,0.0,0.0,0.0,0.0,0.0,0.0,0.0,0.0,0
0,69,0,,0,0,22.3043748309,114.179374469,0.0,0.0,0.0,0.0,0.0,0.0,0.0,0.0,0.0,0.0,0
0,70,0,,0,0,22.3044255752,114.179416852,0.0,0.0,0.0,0.0,0.0,0.0,0.0,0.0,0.0,0.0,0
0,71,0,,0,0,22.3044723963,114.179420143,0.0,0.0,0.0,0.0,0.0,0.0,0.0,0.0,0.0,0.0,0
0,72,0,,0,0,22.3045164371,114.179395919,0.0,0.0,0.0,0.0,0.0,0.0,0.0,0.0,0.0,0.0,0
0,73,0,,0,0,22.3045342483,114.17935989,0.0,0.0,0.0,0.0,0.0,0.0,0.0,0.0,0.0,0.0,0
0,74,0,,0,0,22.3044866803,114.179326843,0.0,0.0,0.0,0.0,0.0,0.0,0.0,0.0,0.0,0.0,0
0,75,0,,0,0,22.3043375958,114.179277794,0.0,0.0,0.0,0.0,0.0,0.0,0.0,0.0,0.0,0.0,0
0,76,0,,0,0,22.3041891817,114.179200099,0.0,0.0,0.0,0.0,0.0,0.0,0.0,0.0,0.0,0.0,0
0,77,0,,0,0,22.3040530783,114.179133099,0.0,0.0,0.0,0.0,0.0,0.0,0.0,0.0,0.0,0.0,0
0,78,0,,0,0,22.3039335679,114.179073251,0.0,0.0,0.0,0.0,0.0,0.0,0.0,0.0,0.0,0.0,0
0,79,0,,0,0,22.303842389,114.179023802,0.0,0.0,0.0,0.0,0.0,0.0,0.0,0.0,0.0,0.0,0
0,80,0,,0,0,22.3038396583,114.179008276,0.0,0.0,0.0,0.0,0.0,0.0,0.0,0.0,0.0,0.0,0
0,81,0,,0,0,22.3038510027,114.179006429,0.0,0.0,0.0,0.0,0.0,0.0,0.0,0.0,0.0,0.0,0
0,82,0,,0,0,22.3038745867,114.179024836,0.0,0.0,0.0,0.0,0.0,0.0,0.0,0.0,0.0,0.0,0
0,83,0,,0,0,22.3038546609,114.179022839,0.0,0.0,0.0,0.0,0.0,0.0,0.0,0.0,0.0,0.0,0
0,84,0,,0,0,22.3038534171,114.179029886,0.0,0.0,0.0,0.0,0.0,0.0,0.0,0.0,0.0,0.0,0
0,85,0,,0,0,22.3038846517,114.179054154,0.0,0.0,0.0,0.0,0.0,0.0,0.0,0.0,0.0,0.0,0
0,86,0,,0,0,22.3035834574,114.178895182,0.0,0.0,0.0,0.0,0.0,0.0,0.0,0.0,0.0,0.0,0
0,87,0,,0,0,22.3035863611,114.17890782,0.0,0.0,0.0,0.0,0.0,0.0,0.0,0.0,0.0,0.0,0
0,88,0,,0,0,22.3036662065,114.178957162,0.0,0.0,0.0,0.0,0.0,0.0,0.0,0.0,0.0,0.0,0
0,89,0,,0,0,22.3036872949,114.17897478,0.0,0.0,0.0,0.0,0.0,0.0,0.0,0.0,0.0,0.0,0
0,90,0,,0,0,22.3037088819,114.179012969,0.0,0.0,0.0,0.0,0.0,0.0,0.0,0.0,0.0,0.0,0
0,91,0,,0,0,22.3037351326,114.179062025,0.0,0.0,0.0,0.0,0.0,0.0,0.0,0.0,0.0,0.0,0
0,92,0,,0,0,22.303772831,114.179115191,0.0,0.0,0.0,0.0,0.0,0.0,0.0,0.0,0.0,0.0,0
0,93,0,,0,0,22.3038143756,114.179112829,0.0,0.0,0.0,0.0,0.0,0.0,0.0,0.0,0.0,0.0,0
0,94,0,,0,0,22.3038171239,114.17915637,0.0,0.0,0.0,0.0,0.0,0.0,0.0,0.0,0.0,0.0,0
0,95,0,,0,0,22.3038098728,114.179151613,0.0,0.0,0.0,0.0,0.0,0.0,0.0,0.0,0.0,0.0,0
0,96,0,,0,0,22.3038178168,114.179126922,0.0,0.0,0.0,0.0,0.0,0.0,0.0,0.0,0.0,0.0,0
0,97,0,,0,0,22.3038098364,114.179109924,0.0,0.0,0.0,0.0,0.0,0.0,0.0,0.0,0.0,0.0,0
0,98,0,,0,0,22.3038040333,114.179075267,0.0,0.0,0.0,0.0,0.0,0.0,0.0,0.0,0.0,0.0,0
0,99,0,,0,0,22.303806483,114.179038235,0.0,0.0,0.0,0.0,0.0,0.0,0.0,0.0,0.0,0.0,0
0,100,0,,0,0,22.3038122482,114.179041534,0.0,0.0,0.0,0.0,0.0,0.0,0.0,0.0,0.0,0.0,0
0,101,0,,0,0,22.3038157329,114.17904142,0.0,0.0,0.0,0.0,0.0,0.0,0.0,0.0,0.0,0.0,0
0,102,0,,0,0,22.3038268417,114.17904199,0.0,0.0,0.0,0.0,0.0,0.0,0.0,0.0,0.0,0.0,0
0,103,0,,0,0,22.3038264573,114.179033618,0.0,0.0,0.0,0.0,0.0,0.0,0.0,0.0,0.0,0.0,0
0,104,0,,0,0,22.3038270268,114.179020871,0.0,0.0,0.0,0.0,0.0,0.0,0.0,0.0,0.0,0.0,0
0,105,0,,0,0,22.3039026856,114.179016213,0.0,0.0,0.0,0.0,0.0,0.0,0.0,0.0,0.0,0.0,0
0,106,0,,0,0,22.3038609405,114.179014515,0.0,0.0,0.0,0.0,0.0,0.0,0.0,0.0,0.0,0.0,0
0,107,0,,0,0,22.3038709444,114.17901821,0.0,0.0,0.0,0.0,0.0,0.0,0.0,0.0,0.0,0.0,0
0,108,0,,0,0,22.3038975134,114.179017264,0.0,0.0,0.0,0.0,0.0,0.0,0.0,0.0,0.0,0.0,0
0,109,0,,0,0,22.3039054645,114.179018035,0.0,0.0,0.0,0.0,0.0,0.0,0.0,0.0,0.0,0.0,0
0,110,0,,0,0,22.3039121083,114.17901871,0.0,0.0,0.0,0.0,0.0,0.0,0.0,0.0,0.0,0.0,0
0,111,0,,0,0,22.3039165075,114.17901977,0.0,0.0,0.0,0.0,0.0,0.0,0.0,0.0,0.0,0.0,0
0,112,0,,0,0,22.3039325129,114.179025447,0.0,0.0,0.0,0.0,0.0,0.0,0.0,0.0,0.0,0.0,0
0,113,0,,0,0,22.303914471,114.179010746,0.0,0.0,0.0,0.0,0.0,0.0,0.0,0.0,0.0,0.0,0
0,114,0,,0,0,22.3039148476,114.179014165,0.0,0.0,0.0,0.0,0.0,0.0,0.0,0.0,0.0,0.0,0
0,115,0,,0,0,22.3039062516,114.179008611,0.0,0.0,0.0,0.0,0.0,0.0,0.0,0.0,0.0,0.0,0
0,116,0,,0,0,22.3037207818,114.178940654,0.0,0.0,0.0,0.0,0.0,0.0,0.0,0.0,0.0,0.0,0
0,117,0,,0,0,22.3038301321,114.178834922,0.0,0.0,0.0,0.0,0.0,0.0,0.0,0.0,0.0,0.0,0
0,118,0,,0,0,22.3038324814,114.178798341,0.0,0.0,0.0,0.0,0.0,0.0,0.0,0.0,0.0,0.0,0
0,119,0,,0,0,22.3038337548,114.17879039,0.0,0.0,0.0,0.0,0.0,0.0,0.0,0.0,0.0,0.0,0
0,120,0,,0,0,22.3038214676,114.178886191,0.0,0.0,0.0,0.0,0.0,0.0,0.0,0.0,0.0,0.0,0
0,121,0,,0,0,22.3038044575,114.17884653,0.0,0.0,0.0,0.0,0.0,0.0,0.0,0.0,0.0,0.0,0
0,122,0,,0,0,22.3037833978,114.178893264,0.0,0.0,0.0,0.0,0.0,0.0,0.0,0.0,0.0,0.0,0
0,123,0,,0,0,22.3037751505,114.178918079,0.0,0.0,0.0,0.0,0.0,0.0,0.0,0.0,0.0,0.0,0
0,124,0,,0,0,22.3037683016,114.178931502,0.0,0.0,0.0,0.0,0.0,0.0,0.0,0.0,0.0,0.0,0
0,125,0,,0,0,22.3037713443,114.178919956,0.0,0.0,0.0,0.0,0.0,0.0,0.0,0.0,0.0,0.0,0
0,126,0,,0,0,22.3037812838,114.178931368,0.0,0.0,0.0,0.0,0.0,0.0,0.0,0.0,0.0,0.0,0
0,127,0,,0,0,22.3037719192,114.178927024,0.0,0.0,0.0,0.0,0.0,0.0,0.0,0.0,0.0,0.0,0
0,128,0,,0,0,22.3037654319,114.178923513,0.0,0.0,0.0,0.0,0.0,0.0,0.0,0.0,0.0,0.0,0
0,129,0,,0,0,22.3037702365,114.178928195,0.0,0.0,0.0,0.0,0.0,0.0,0.0,0.0,0.0,0.0,0
0,130,0,,0,0,22.3037778062,114.178931748,0.0,0.0,0.0,0.0,0.0,0.0,0.0,0.0,0.0,0.0,0
0,131,0,,0,0,22.3037766888,114.178931978,0.0,0.0,0.0,0.0,0.0,0.0,0.0,0.0,0.0,0.0,0
0,132,0,,0,0,22.3037657775,114.178935584,0.0,0.0,0.0,0.0,0.0,0.0,0.0,0.0,0.0,0.0,0
0,133,0,,0,0,22.3037589999,114.178941241,0.0,0.0,0.0,0.0,0.0,0.0,0.0,0.0,0.0,0.0,0
0,134,0,,0,0,22.3037629585,114.17894482,0.0,0.0,0.0,0.0,0.0,0.0,0.0,0.0,0.0,0.0,0
0,135,0,,0,0,22.303769634,114.178939145,0.0,0.0,0.0,0.0,0.0,0.0,0.0,0.0,0.0,0.0,0
0,136,0,,0,0,22.3037819008,114.178941728,0.0,0.0,0.0,0.0,0.0,0.0,0.0,0.0,0.0,0.0,0
0,137,0,,0,0,22.3038012689,114.178944551,0.0,0.0,0.0,0.0,0.0,0.0,0.0,0.0,0.0,0.0,0
0,138,0,,0,0,22.3037004893,114.178938841,0.0,0.0,0.0,0.0,0.0,0.0,0.0,0.0,0.0,0.0,0
0,139,0,,0,0,22.303719881,114.178940665,0.0,0.0,0.0,0.0,0.0,0.0,0.0,0.0,0.0,0.0,0
0,140,0,,0,0,22.3038026868,114.178944582,0.0,0.0,0.0,0.0,0.0,0.0,0.0,0.0,0.0,0.0,0
0,141,0,,0,0,22.3045371168,114.179297966,0.0,0.0,0.0,0.0,0.0,0.0,0.0,0.0,0.0,0.0,0
0,142,0,,0,0,22.3045216757,114.179250746,0.0,0.0,0.0,0.0,0.0,0.0,0.0,0.0,0.0,0.0,0
0,143,0,,0,0,22.3044685827,114.179152175,0.0,0.0,0.0,0.0,0.0,0.0,0.0,0.0,0.0,0.0,0
0,144,0,,0,0,22.3044930287,114.179177188,0.0,0.0,0.0,0.0,0.0,0.0,0.0,0.0,0.0,0.0,0
0,145,0,,0,0,22.3044106629,114.179165382,0.0,0.0,0.0,0.0,0.0,0.0,0.0,0.0,0.0,0.0,0
0,146,0,,0,0,22.3043848059,114.179179355,0.0,0.0,0.0,0.0,0.0,0.0,0.0,0.0,0.0,0.0,0
0,147,0,,0,0,22.3042977997,114.179141885,0.0,0.0,0.0,0.0,0.0,0.0,0.0,0.0,0.0,0.0,0
0,148,0,,0,0,22.3042602206,114.179187275,0.0,0.0,0.0,0.0,0.0,0.0,0.0,0.0,0.0,0.0,0
0,149,0,,0,0,22.3038002039,114.178912703,0.0,0.0,0.0,0.0,0.0,0.0,0.0,0.0,0.0,0.0,0
0,150,0,,0,0,22.3038086714,114.178921253,0.0,0.0,0.0,0.0,0.0,0.0,0.0,0.0,0.0,0.0,0
0,151,0,,0,0,22.303808821,114.178922599,0.0,0.0,0.0,0.0,0.0,0.0,0.0,0.0,0.0,0.0,0
0,152,0,,0,0,22.3038215392,114.178926771,0.0,0.0,0.0,0.0,0.0,0.0,0.0,0.0,0.0,0.0,0
0,153,0,,0,0,22.3038189927,114.178928944,0.0,0.0,0.0,0.0,0.0,0.0,0.0,0.0,0.0,0.0,0
0,154,0,,0,0,22.3042003568,114.179114526,0.0,0.0,0.0,0.0,0.0,0.0,0.0,0.0,0.0,0.0,0
0,155,0,,0,0,22.304155178,114.179092201,0.0,0.0,0.0,0.0,0.0,0.0,0.0,0.0,0.0,0.0,0
0,156,0,,0,0,22.3038247564,114.178929947,0.0,0.0,0.0,0.0,0.0,0.0,0.0,0.0,0.0,0.0,0
0,157,0,,0,0,22.3038295617,114.178933152,0.0,0.0,0.0,0.0,0.0,0.0,0.0,0.0,0.0,0.0,0
0,158,0,,0,0,22.3038180378,114.178931645,0.0,0.0,0.0,0.0,0.0,0.0,0.0,0.0,0.0,0.0,0
0,159,0,,0,0,22.3038220189,114.17893184,0.0,0.0,0.0,0.0,0.0,0.0,0.0,0.0,0.0,0.0,0
0,160,0,,0,0,22.3038217568,114.178934126,0.0,0.0,0.0,0.0,0.0,0.0,0.0,0.0,0.0,0.0,0
0,161,0,,0,0,22.3038208967,114.178931311,0.0,0.0,0.0,0.0,0.0,0.0,0.0,0.0,0.0,0.0,0
0,162,0,,0,0,22.3038297491,114.178932592,0.0,0.0,0.0,0.0,0.0,0.0,0.0,0.0,0.0,0.0,0
0,163,0,,0,0,22.303829722,114.178931858,0.0,0.0,0.0,0.0,0.0,0.0,0.0,0.0,0.0,0.0,0
0,164,0,,0,0,22.3040670955,114.179061514,0.0,0.0,0.0,0.0,0.0,0.0,0.0,0.0,0.0,0.0,0
0,165,0,,0,0,22.3040671365,114.179047757,0.0,0.0,0.0,0.0,0.0,0.0,0.0,0.0,0.0,0.0,0
0,166,0,,0,0,22.3040802302,114.179037406,0.0,0.0,0.0,0.0,0.0,0.0,0.0,0.0,0.0,0.0,0
0,167,0,,0,0,22.3041175176,114.178985319,0.0,0.0,0.0,0.0,0.0,0.0,0.0,0.0,0.0,0.0,0
0,168,0,,0,0,22.3039147932,114.178804974,0.0,0.0,0.0,0.0,0.0,0.0,0.0,0.0,0.0,0.0,0
0,169,0,,0,0,22.3039341403,114.178787319,0.0,0.0,0.0,0.0,0.0,0.0,0.0,0.0,0.0,0.0,0
0,170,0,,0,0,22.3042214396,114.17895733,0.0,0.0,0.0,0.0,0.0,0.0,0.0,0.0,0.0,0.0,0
0,171,0,,0,0,22.3042132243,114.179036192,0.0,0.0,0.0,0.0,0.0,0.0,0.0,0.0,0.0,0.0,0
0,172,0,,0,0,22.304229888,114.17906698,0.0,0.0,0.0,0.0,0.0,0.0,0.0,0.0,0.0,0.0,0
0,173,0,,0,0,22.304238317,114.179089539,0.0,0.0,0.0,0.0,0.0,0.0,0.0,0.0,0.0,0.0,0
0,174,0,,0,0,22.3042368683,114.179082671,0.0,0.0,0.0,0.0,0.0,0.0,0.0,0.0,0.0,0.0,0
0,175,0,,0,0,22.3042521187,114.17909732,0.0,0.0,0.0,0.0,0.0,0.0,0.0,0.0,0.0,0.0,0
0,176,0,,0,0,22.3042642915,114.179103225,0.0,0.0,0.0,0.0,0.0,0.0,0.0,0.0,0.0,0.0,0
0,177,0,,0,0,22.3042868092,114.179134014,0.0,0.0,0.0,0.0,0.0,0.0,0.0,0.0,0.0,0.0,0
0,178,0,,0,0,22.3043047283,114.179134605,0.0,0.0,0.0,0.0,0.0,0.0,0.0,0.0,0.0,0.0,0
0,179,0,,0,0,22.3043386928,114.179148609,0.0,0.0,0.0,0.0,0.0,0.0,0.0,0.0,0.0,0.0,0
0,180,0,,0,0,22.3043721343,114.179169788,0.0,0.0,0.0,0.0,0.0,0.0,0.0,0.0,0.0,0.0,0
0,181,0,,0,0,22.3043606064,114.179167454,0.0,0.0,0.0,0.0,0.0,0.0,0.0,0.0,0.0,0.0,0
0,182,0,,0,0,22.3043761728,114.179147719,0.0,0.0,0.0,0.0,0.0,0.0,0.0,0.0,0.0,0.0,0
0,183,0,,0,0,22.304368824,114.179149851,0.0,0.0,0.0,0.0,0.0,0.0,0.0,0.0,0.0,0.0,0
0,184,0,,0,0,22.3043661682,114.179156489,0.0,0.0,0.0,0.0,0.0,0.0,0.0,0.0,0.0,0.0,0
0,185,0,,0,0,22.3043704262,114.179159488,0.0,0.0,0.0,0.0,0.0,0.0,0.0,0.0,0.0,0.0,0
0,186,0,,0,0,22.3043475552,114.179148918,0.0,0.0,0.0,0.0,0.0,0.0,0.0,0.0,0.0,0.0,0
0,187,0,,0,0,22.3043297621,114.179134708,0.0,0.0,0.0,0.0,0.0,0.0,0.0,0.0,0.0,0.0,0
0,188,0,,0,0,22.3043235873,114.179124712,0.0,0.0,0.0,0.0,0.0,0.0,0.0,0.0,0.0,0.0,0
0,189,0,,0,0,22.3043259859,114.179118454,0.0,0.0,0.0,0.0,0.0,0.0,0.0,0.0,0.0,0.0,0
0,190,0,,0,0,22.3043361461,114.179110411,0.0,0.0,0.0,0.0,0.0,0.0,0.0,0.0,0.0,0.0,0
0,191,0,,0,0,22.3053116841,114.179796753,0.0,0.0,0.0,0.0,0.0,0.0,0.0,0.0,0.0,0.0,0
0,192,0,,0,0,22.3052970398,114.179786978,0.0,0.0,0.0,0.0,0.0,0.0,0.0,0.0,0.0,0.0,0
0,193,0,,0,0,22.3052648923,114.179777736,0.0,0.0,0.0,0.0,0.0,0.0,0.0,0.0,0.0,0.0,0
0,194,0,,0,0,22.3052297544,114.179766585,0.0,0.0,0.0,0.0,0.0,0.0,0.0,0.0,0.0,0.0,0
0,195,0,,0,0,22.3051950106,114.179753534,0.0,0.0,0.0,0.0,0.0,0.0,0.0,0.0,0.0,0.0,0
0,196,0,,0,0,22.3051755923,114.179746094,0.0,0.0,0.0,0.0,0.0,0.0,0.0,0.0,0.0,0.0,0
0,197,0,,0,0,22.3051779376,114.179747303,0.0,0.0,0.0,0.0,0.0,0.0,0.0,0.0,0.0,0.0,0
0,198,0,,0,0,22.3053004249,114.179714491,0.0,0.0,0.0,0.0,0.0,0.0,0.0,0.0,0.0,0.0,0
0,199,0,,0,0,22.3052929717,114.179707528,0.0,0.0,0.0,0.0,0.0,0.0,0.0,0.0,0.0,0.0,0
0,200,0,,0,0,22.3053034786,114.179702789,0.0,0.0,0.0,0.0,0.0,0.0,0.0,0.0,0.0,0.0,0
0,201,0,,0,0,22.3053031908,114.179697029,0.0,0.0,0.0,0.0,0.0,0.0,0.0,0.0,0.0,0.0,0
0,202,0,,0,0,22.3053125455,114.179692129,0.0,0.0,0.0,0.0,0.0,0.0,0.0,0.0,0.0,0.0,0
0,203,0,,0,0,22.3053211878,114.179700778,0.0,0.0,0.0,0.0,0.0,0.0,0.0,0.0,0.0,0.0,0
0,204,0,,0,0,22.3053364809,114.179713086,0.0,0.0,0.0,0.0,0.0,0.0,0.0,0.0,0.0,0.0,0
0,205,0,,0,0,22.3053479667,114.179731411,0.0,0.0,0.0,0.0,0.0,0.0,0.0,0.0,0.0,0.0,0
0,206,0,,0,0,22.3053444966,114.179738161,0.0,0.0,0.0,0.0,0.0,0.0,0.0,0.0,0.0,0.0,0
0,207,0,,0,0,22.305354382,114.179741193,0.0,0.0,0.0,0.0,0.0,0.0,0.0,0.0,0.0,0.0,0
0,208,0,,0,0,22.3053505126,114.179749568,0.0,0.0,0.0,0.0,0.0,0.0,0.0,0.0,0.0,0.0,0
0,209,0,,0,0,22.3053468706,114.179755356,0.0,0.0,0.0,0.0,0.0,0.0,0.0,0.0,0.0,0.0,0
0,210,0,,0,0,22.3053439895,114.179747619,0.0,0.0,0.0,0.0,0.0,0.0,0.0,0.0,0.0,0.0,0
0,211,0,,0,0,22.305323017,114.179738245,0.0,0.0,0.0,0.0,0.0,0.0,0.0,0.0,0.0,0.0,0
0,212,0,,0,0,22.3052953819,114.179718969,0.0,0.0,0.0,0.0,0.0,0.0,0.0,0.0,0.0,0.0,0
0,213,0,,0,0,22.3052849771,114.179697891,0.0,0.0,0.0,0.0,0.0,0.0,0.0,0.0,0.0,0.0,0
0,214,0,,0,0,22.3052857304,114.179691113,0.0,0.0,0.0,0.0,0.0,0.0,0.0,0.0,0.0,0.0,0
0,215,0,,0,0,22.3052812552,114.179681963,0.0,0.0,0.0,0.0,0.0,0.0,0.0,0.0,0.0,0.0,0
0,216,0,,0,0,22.3052620502,114.179670971,0.0,0.0,0.0,0.0,0.0,0.0,0.0,0.0,0.0,0.0,0
0,217,0,,0,0,22.3052486414,114.179667853,0.0,0.0,0.0,0.0,0.0,0.0,0.0,0.0,0.0,0.0,0
0,218,0,,0,0,22.3052490734,114.179664689,0.0,0.0,0.0,0.0,0.0,0.0,0.0,0.0,0.0,0.0,0
0,219,0,,0,0,22.3039335637,114.178902073,0.0,0.0,0.0,0.0,0.0,0.0,0.0,0.0,0.0,0.0,0
0,220,0,,0,0,22.3039337198,114.178899212,0.0,0.0,0.0,0.0,0.0,0.0,0.0,0.0,0.0,0.0,0
0,221,0,,0,0,22.3039308322,114.178901794,0.0,0.0,0.0,0.0,0.0,0.0,0.0,0.0,0.0,0.0,0
0,222,0,,0,0,22.303918047,114.178902888,0.0,0.0,0.0,0.0,0.0,0.0,0.0,0.0,0.0,0.0,0
0,223,0,,0,0,22.3039192723,114.178904429,0.0,0.0,0.0,0.0,0.0,0.0,0.0,0.0,0.0,0.0,0
0,224,0,,0,0,22.3039111616,114.178902638,0.0,0.0,0.0,0.0,0.0,0.0,0.0,0.0,0.0,0.0,0
0,225,0,,0,0,22.3039437633,114.178906164,0.0,0.0,0.0,0.0,0.0,0.0,0.0,0.0,0.0,0.0,0
0,226,0,,0,0,22.303968029,114.178907194,0.0,0.0,0.0,0.0,0.0,0.0,0.0,0.0,0.0,0.0,0
0,227,0,,0,0,22.3039800891,114.1789084,0.0,0.0,0.0,0.0,0.0,0.0,0.0,0.0,0.0,0.0,0
0,228,0,,0,0,22.3039663062,114.1789087,0.0,0.0,0.0,0.0,0.0,0.0,0.0,0.0,0.0,0.0,0
0,229,0,,0,0,22.305504848,114.179816285,0.0,0.0,0.0,0.0,0.0,0.0,0.0,0.0,0.0,0.0,0
0,230,0,,0,0,22.3055018129,114.179817448,0.0,0.0,0.0,0.0,0.0,0.0,0.0,0.0,0.0,0.0,0
0,231,0,,0,0,22.3055363633,114.179474328,0.0,0.0,0.0,0.0,0.0,0.0,0.0,0.0,0.0,0.0,0
0,232,0,,0,0,22.3055299963,114.179476021,0.0,0.0,0.0,0.0,0.0,0.0,0.0,0.0,0.0,0.0,0
0,233,0,,0,0,22.3055415228,114.179480232,0.0,0.0,0.0,0.0,0.0,0.0,0.0,0.0,0.0,0.0,0
0,234,0,,0,0,22.3055395639,114.179479595,0.0,0.0,0.0,0.0,0.0,0.0,0.0,0.0,0.0,0.0,0
0,235,0,,0,0,22.3054158264,114.179416496,0.0,0.0,0.0,0.0,0.0,0.0,0.0,0.0,0.0,0.0,0
0,236,0,,0,0,22.305385459,114.179396212,0.0,0.0,0.0,0.0,0.0,0.0,0.0,0.0,0.0,0.0,0
0,237,0,,0,0,22.3055466568,114.179488825,0.0,0.0,0.0,0.0,0.0,0.0,0.0,0.0,0.0,0.0,0
0,238,0,,0,0,22.3055471775,114.179490602,0.0,0.0,0.0,0.0,0.0,0.0,0.0,0.0,0.0,0.0,0
0,239,0,,0,0,22.3055492099,114.179491985,0.0,0.0,0.0,0.0,0.0,0.0,0.0,0.0,0.0,0.0,0
0,240,0,,0,0,22.3055465715,114.179490372,0.0,0.0,0.0,0.0,0.0,0.0,0.0,0.0,0.0,0.0,0
0,241,0,,0,0,22.3055492219,114.179490659,0.0,0.0,0.0,0.0,0.0,0.0,0.0,0.0,0.0,0.0,0
0,242,0,,0,0,22.305543966,114.179490572,0.0,0.0,0.0,0.0,0.0,0.0,0.0,0.0,0.0,0.0,0
0,243,0,,0,0,22.3055410402,114.179490067,0.0,0.0,0.0,0.0,0.0,0.0,0.0,0.0,0.0,0.0,0
0,244,0,,0,0,22.305374646,114.179394997,0.0,0.0,0.0,0.0,0.0,0.0,0.0,0.0,0.0,0.0,0
0,245,0,,0,0,22.3053582224,114.179387611,0.0,0.0,0.0,0.0,0.0,0.0,0.0,0.0,0.0,0.0,0
0,246,0,,0,0,22.3053386381,114.17938078,0.0,0.0,0.0,0.0,0.0,0.0,0.0,0.0,0.0,0.0,0
0,247,0,,0,0,22.3053241959,114.179373006,0.0,0.0,0.0,0.0,0.0,0.0,0.0,0.0,0.0,0.0,0
0,248,0,,0,0,22.3053161445,114.179365609,0.0,0.0,0.0,0.0,0.0,0.0,0.0,0.0,0.0,0.0,0
0,249,0,,0,0,22.3053042277,114.179786373,0.0,0.0,0.0,0.0,0.0,0.0,0.0,0.0,0.0,0.0,0
0,250,0,,0,0,22.3053036552,114.179783402,0.0,0.0,0.0,0.0,0.0,0.0,0.0,0.0,0.0,0.0,0
0,251,0,,0,0,22.3053126057,114.179786332,0.0,0.0,0.0,0.0,0.0,0.0,0.0,0.0,0.0,0.0,0
0,252,0,,0,0,22.305313308,114.179791849,0.0,0.0,0.0,0.0,0.0,0.0,0.0,0.0,0.0,0.0,0
0,253,0,,0,0,22.3053067437,114.179790251,0.0,0.0,0.0,0.0,0.0,0.0,0.0,0.0,0.0,0.0,0
0,254,0,,0,0,22.3053098935,114.179790415,0.0,0.0,0.0,0.0,0.0,0.0,0.0,0.0,0.0,0.0,0
0,255,0,,0,0,22.3053143081,114.179785367,0.0,0.0,0.0,0.0,0.0,0.0,0.0,0.0,0.0,0.0,0
0,256,0,,0,0,22.3053265365,114.179785731,0.0,0.0,0.0,0.0,0.0,0.0,0.0,0.0,0.0,0.0,0
0,257,0,,0,0,22.305323938,114.179783978,0.0,0.0,0.0,0.0,0.0,0.0,0.0,0.0,0.0,0.0,0
0,258,0,,0,0,22.3053172249,114.179788205,0.0,0.0,0.0,0.0,0.0,0.0,0.0,0.0,0.0,0.0,0
0,259,0,,0,0,22.3053023797,114.179775098,0.0,0.0,0.0,0.0,0.0,0.0,0.0,0.0,0.0,0.0,0
0,260,0,,0,0,22.3052778744,114.179757369,0.0,0.0,0.0,0.0,0.0,0.0,0.0,0.0,0.0,0.0,0
0,261,0,,0,0,22.3052543864,114.179747316,0.0,0.0,0.0,0.0,0.0,0.0,0.0,0.0,0.0,0.0,0
0,262,0,,0,0,22.3052425168,114.179747134,0.0,0.0,0.0,0.0,0.0,0.0,0.0,0.0,0.0,0.0,0
0,263,0,,0,0,22.3052289689,114.179758334,0.0,0.0,0.0,0.0,0.0,0.0,0.0,0.0,0.0,0.0,0
0,264,0,,0,0,22.3052365421,114.179756926,0.0,0.0,0.0,0.0,0.0,0.0,0.0,0.0,0.0,0.0,0
0,265,0,,0,0,22.3052599382,114.179758369,0.0,0.0,0.0,0.0,0.0,0.0,0.0,0.0,0.0,0.0,0
0,266,0,,0,0,22.3052703669,114.179758934,0.0,0.0,0.0,0.0,0.0,0.0,0.0,0.0,0.0,0.0,0
0,267,0,,0,0,22.305288479,114.179767831,0.0,0.0,0.0,0.0,0.0,0.0,0.0,0.0,0.0,0.0,0
0,268,0,,0,0,22.3053253615,114.17978618,0.0,0.0,0.0,0.0,0.0,0.0,0.0,0.0,0.0,0.0,0
0,269,0,,0,0,22.3053567337,114.179797522,0.0,0.0,0.0,0.0,0.0,0.0,0.0,0.0,0.0,0.0,0
0,270,0,,0,0,22.3053788457,114.179808492,0.0,0.0,0.0,0.0,0.0,0.0,0.0,0.0,0.0,0.0,0
0,271,0,,0,0,22.3053922933,114.179809123,0.0,0.0,0.0,0.0,0.0,0.0,0.0,0.0,0.0,0.0,0
0,272,0,,0,0,22.3053928916,114.179817835,0.0,0.0,0.0,0.0,0.0,0.0,0.0,0.0,0.0,0.0,0
0,273,0,,0,0,22.3053919786,114.179818434,0.0,0.0,0.0,0.0,0.0,0.0,0.0,0.0,0.0,0.0,0
0,274,0,,0,0,22.3053938971,114.17982341,0.0,0.0,0.0,0.0,0.0,0.0,0.0,0.0,0.0,0.0,0
0,275,0,,0,0,22.3054186981,114.179840348,0.0,0.0,0.0,0.0,0.0,0.0,0.0,0.0,0.0,0.0,0
0,276,0,,0,0,22.3053931438,114.179841319,0.0,0.0,0.0,0.0,0.0,0.0,0.0,0.0,0.0,0.0,0
0,277,0,,0,0,22.305391222,114.179843408,0.0,0.0,0.0,0.0,0.0,0.0,0.0,0.0,0.0,0.0,0
0,278,0,,0,0,22.3054000632,114.179853845,0.0,0.0,0.0,0.0,0.0,0.0,0.0,0.0,0.0,0.0,0
0,279,0,,0,0,22.3053949907,114.179849462,0.0,0.0,0.0,0.0,0.0,0.0,0.0,0.0,0.0,0.0,0
0,280,0,,0,0,22.3053994877,114.179848245,0.0,0.0,0.0,0.0,0.0,0.0,0.0,0.0,0.0,0.0,0
0,281,0,,0,0,22.3053963719,114.179854829,0.0,0.0,0.0,0.0,0.0,0.0,0.0,0.0,0.0,0.0,0
0,282,0,,0,0,22.3053803433,114.17985068,0.0,0.0,0.0,0.0,0.0,0.0,0.0,0.0,0.0,0.0,0
0,283,0,,0,0,22.3053776524,114.179853864,0.0,0.0,0.0,0.0,0.0,0.0,0.0,0.0,0.0,0.0,0
0,284,0,,0,0,22.3053773037,114.179859945,0.0,0.0,0.0,0.0,0.0,0.0,0.0,0.0,0.0,0.0,0
0,285,0,,0,0,22.305316898,114.179826042,0.0,0.0,0.0,0.0,0.0,0.0,0.0,0.0,0.0,0.0,0
0,286,0,,0,0,22.3053915732,114.179871478,0.0,0.0,0.0,0.0,0.0,0.0,0.0,0.0,0.0,0.0,0
0,287,0,,0,0,22.3053887984,114.179873227,0.0,0.0,0.0,0.0,0.0,0.0,0.0,0.0,0.0,0.0,0
0,288,0,,0,0,22.3053862954,114.179878892,0.0,0.0,0.0,0.0,0.0,0.0,0.0,0.0,0.0,0.0,0
0,289,0,,0,0,22.3053800019,114.17987779,0.0,0.0,0.0,0.0,0.0,0.0,0.0,0.0,0.0,0.0,0
0,290,0,,0,0,22.3053852996,114.179877676,0.0,0.0,0.0,0.0,0.0,0.0,0.0,0.0,0.0,0.0,0
0,291,0,,0,0,22.3053791169,114.179872508,0.0,0.0,0.0,0.0,0.0,0.0,0.0,0.0,0.0,0.0,0
0,292,0,,0,0,22.3053990448,114.179831352,0.0,0.0,0.0,0.0,0.0,0.0,0.0,0.0,0.0,0.0,0
0,293,0,,0,0,22.3054277468,114.179808275,0.0,0.0,0.0,0.0,0.0,0.0,0.0,0.0,0.0,0.0,0
0,294,0,,0,0,22.3054348529,114.179828894,0.0,0.0,0.0,0.0,0.0,0.0,0.0,0.0,0.0,0.0,0
0,295,0,,0,0,22.3054305763,114.179874338,0.0,0.0,0.0,0.0,0.0,0.0,0.0,0.0,0.0,0.0,0
0,296,0,,0,0,22.3054208319,114.179897167,0.0,0.0,0.0,0.0,0.0,0.0,0.0,0.0,0.0,0.0,0
0,297,0,,0,0,22.3054294686,114.179924781,0.0,0.0,0.0,0.0,0.0,0.0,0.0,0.0,0.0,0.0,0
0,298,0,,0,0,22.3054384693,114.179929293,0.0,0.0,0.0,0.0,0.0,0.0,0.0,0.0,0.0,0.0,0
0,299,0,,0,0,22.3054952621,114.179553803,0.0,0.0,0.0,0.0,0.0,0.0,0.0,0.0,0.0,0.0,0
0,300,0,,0,0,22.3054873577,114.179557528,0.0,0.0,0.0,0.0,0.0,0.0,0.0,0.0,0.0,0.0,0
0,301,0,,0,0,22.3054859116,114.179562992,0.0,0.0,0.0,0.0,0.0,0.0,0.0,0.0,0.0,0.0,0
0,302,0,,0,0,22.3054936408,114.179566093,0.0,0.0,0.0,0.0,0.0,0.0,0.0,0.0,0.0,0.0,0
0,303,0,,0,0,22.305486808,114.179571495,0.0,0.0,0.0,0.0,0.0,0.0,0.0,0.0,0.0,0.0,0
0,304,0,,0,0,22.3054993088,114.179579565,0.0,0.0,0.0,0.0,0.0,0.0,0.0,0.0,0.0,0.0,0
0,305,0,,0,0,22.3055085761,114.179582445,0.0,0.0,0.0,0.0,0.0,0.0,0.0,0.0,0.0,0.0,0
0,306,0,,0,0,22.305513193,114.179581117,0.0,0.0,0.0,0.0,0.0,0.0,0.0,0.0,0.0,0.0,0
0,307,0,,0,0,22.3055055069,114.179585192,0.0,0.0,0.0,0.0,0.0,0.0,0.0,0.0,0.0,0.0,0
0,308,0,,0,0,22.3055005222,114.179584077,0.0,0.0,0.0,0.0,0.0,0.0,0.0,0.0,0.0,0.0,0
0,309,0,,0,0,22.3054974806,114.179585569,0.0,0.0,0.0,0.0,0.0,0.0,0.0,0.0,0.0,0.0,0
0,310,0,,0,0,22.3054990265,114.179586526,0.0,0.0,0.0,0.0,0.0,0.0,0.0,0.0,0.0,0.0,0
0,311,0,,0,0,22.3054968098,114.179592759,0.0,0.0,0.0,0.0,0.0,0.0,0.0,0.0,0.0,0.0,0
0,312,0,,0,0,22.3054770946,114.179615724,0.0,0.0,0.0,0.0,0.0,0.0,0.0,0.0,0.0,0.0,0
0,313,0,,0,0,22.3054458556,114.179687,0.0,0.0,0.0,0.0,0.0,0.0,0.0,0.0,0.0,0.0,0
0,314,0,,0,0,22.3054088874,114.179751782,0.0,0.0,0.0,0.0,0.0,0.0,0.0,0.0,0.0,0.0,0
0,315,0,,0,0,22.3053656015,114.180118213,0.0,0.0,0.0,0.0,0.0,0.0,0.0,0.0,0.0,0.0,0
0,316,0,,0,0,22.305377056,114.180091822,0.0,0.0,0.0,0.0,0.0,0.0,0.0,0.0,0.0,0.0,0
0,317,0,,0,0,22.3053148998,114.180024631,0.0,0.0,0.0,0.0,0.0,0.0,0.0,0.0,0.0,0.0,0
0,318,0,,0,0,22.3053106107,114.180006723,0.0,0.0,0.0,0.0,0.0,0.0,0.0,0.0,0.0,0.0,0
0,319,0,,0,0,22.3052906199,114.1799673,0.0,0.0,0.0,0.0,0.0,0.0,0.0,0.0,0.0,0.0,0
0,320,0,,0,0,22.3053865826,114.180019067,0.0,0.0,0.0,0.0,0.0,0.0,0.0,0.0,0.0,0.0,0
0,321,0,,0,0,22.3053814937,114.180005365,0.0,0.0,0.0,0.0,0.0,0.0,0.0,0.0,0.0,0.0,0
0,322,0,,0,0,22.3050066019,114.179786122,0.0,0.0,0.0,0.0,0.0,0.0,0.0,0.0,0.0,0.0,0
0,323,0,,0,0,22.305030244,114.179796827,0.0,0.0,0.0,0.0,0.0,0.0,0.0,0.0,0.0,0.0,0
0,324,0,,0,0,22.3050265596,114.179792287,0.0,0.0,0.0,0.0,0.0,0.0,0.0,0.0,0.0,0.0,0
0,325,0,,0,0,22.305001593,114.17977793,0.0,0.0,0.0,0.0,0.0,0.0,0.0,0.0,0.0,0.0,0
0,326,0,,0,0,22.3049958619,114.179780124,0.0,0.0,0.0,0.0,0.0,0.0,0.0,0.0,0.0,0.0,0
0,327,0,,0,0,22.3050026719,114.17978636,0.0,0.0,0.0,0.0,0.0,0.0,0.0,0.0,0.0,0.0,0
0,328,0,,0,0,22.3050000423,114.17978972,0.0,0.0,0.0,0.0,0.0,0.0,0.0,0.0,0.0,0.0,0
0,329,0,,0,0,22.3053530707,114.17999477,0.0,0.0,0.0,0.0,0.0,0.0,0.0,0.0,0.0,0.0,0
0,330,0,,0,0,22.3053659226,114.18000598,0.0,0.0,0.0,0.0,0.0,0.0,0.0,0.0,0.0,0.0,0
0,331,0,,0,0,22.3053495094,114.179999278,0.0,0.0,0.0,0.0,0.0,0.0,0.0,0.0,0.0,0.0,0
0,332,0,,0,0,22.3053341337,114.179999217,0.0,0.0,0.0,0.0,0.0,0.0,0.0,0.0,0.0,0.0,0
0,333,0,,0,0,22.3053683933,114.179634064,0.0,0.0,0.0,0.0,0.0,0.0,0.0,0.0,0.0,0.0,0
0,334,0,,0,0,22.3052989648,114.179670619,0.0,0.0,0.0,0.0,0.0,0.0,0.0,0.0,0.0,0.0,0
0,335,0,,0,0,22.3052919643,114.179682988,0.0,0.0,0.0,0.0,0.0,0.0,0.0,0.0,0.0,0.0,0
0,336,0,,0,0,22.3053509901,114.179691482,0.0,0.0,0.0,0.0,0.0,0.0,0.0,0.0,0.0,0.0,0
0,337,0,,0,0,22.3051375657,114.180111137,0.0,0.0,0.0,0.0,0.0,0.0,0.0,0.0,0.0,0.0,0
0,338,0,,0,0,22.3051942303,114.180088637,0.0,0.0,0.0,0.0,0.0,0.0,0.0,0.0,0.0,0.0,0
0,339,0,,0,0,22.3052035021,114.179624378,0.0,0.0,0.0,0.0,0.0,0.0,0.0,0.0,0.0,0.0,0
0,340,0,,0,0,22.305173728,114.179606146,0.0,0.0,0.0,0.0,0.0,0.0,0.0,0.0,0.0,0.0,0
0,341,0,,0,0,22.3051224475,114.179573447,0.0,0.0,0.0,0.0,0.0,0.0,0.0,0.0,0.0,0.0,0
0,342,0,,0,0,22.3050482658,114.179543563,0.0,0.0,0.0,0.0,0.0,0.0,0.0,0.0,0.0,0.0,0
0,343,0,,0,0,22.3051105301,114.179502745,0.0,0.0,0.0,0.0,0.0,0.0,0.0,0.0,0.0,0.0,0
0,344,0,,0,0,22.3054058835,114.179663244,0.0,0.0,0.0,0.0,0.0,0.0,0.0,0.0,0.0,0.0,0
0,345,0,,0,0,22.3053202535,114.17965691,0.0,0.0,0.0,0.0,0.0,0.0,0.0,0.0,0.0,0.0,0
0,346,0,,0,0,22.3054436237,114.179671564,0.0,0.0,0.0,0.0,0.0,0.0,0.0,0.0,0.0,0.0,0
0,347,0,,0,0,22.3054625483,114.179672814,0.0,0.0,0.0,0.0,0.0,0.0,0.0,0.0,0.0,0.0,0
0,348,0,,0,0,22.3054848366,114.179673176,0.0,0.0,0.0,0.0,0.0,0.0,0.0,0.0,0.0,0.0,0
0,349,0,,0,0,22.3054771174,114.179665635,0.0,0.0,0.0,0.0,0.0,0.0,0.0,0.0,0.0,0.0,0
0,350,0,,0,0,22.3053262347,114.17965485,0.0,0.0,0.0,0.0,0.0,0.0,0.0,0.0,0.0,0.0,0
0,351,0,,0,0,22.3054678685,114.17966812,0.0,0.0,0.0,0.0,0.0,0.0,0.0,0.0,0.0,0.0,0
0,352,0,,0,0,22.3054613454,114.179670941,0.0,0.0,0.0,0.0,0.0,0.0,0.0,0.0,0.0,0.0,0
0,353,0,,0,0,22.3054505947,114.179669848,0.0,0.0,0.0,0.0,0.0,0.0,0.0,0.0,0.0,0.0,0
0,354,0,,0,0,22.3054382384,114.179664871,0.0,0.0,0.0,0.0,0.0,0.0,0.0,0.0,0.0,0.0,0
0,355,0,,0,0,22.3054375241,114.179665089,0.0,0.0,0.0,0.0,0.0,0.0,0.0,0.0,0.0,0.0,0
0,356,0,,0,0,22.3054374276,114.179665033,0.0,0.0,0.0,0.0,0.0,0.0,0.0,0.0,0.0,0.0,0
0,357,0,,0,0,22.3054458587,114.179667934,0.0,0.0,0.0,0.0,0.0,0.0,0.0,0.0,0.0,0.0,0
0,358,0,,0,0,22.3054344883,114.179669548,0.0,0.0,0.0,0.0,0.0,0.0,0.0,0.0,0.0,0.0,0
0,359,0,,0,0,22.3054358597,114.179673347,0.0,0.0,0.0,0.0,0.0,0.0,0.0,0.0,0.0,0.0,0
0,360,0,,0,0,22.3054312883,114.179675095,0.0,0.0,0.0,0.0,0.0,0.0,0.0,0.0,0.0,0.0,0
0,361,0,,0,0,22.3054366627,114.179666551,0.0,0.0,0.0,0.0,0.0,0.0,0.0,0.0,0.0,0.0,0
0,362,0,,0,0,22.3054561709,114.179636677,0.0,0.0,0.0,0.0,0.0,0.0,0.0,0.0,0.0,0.0,0
0,363,0,,0,0,22.3039571794,114.178943864,0.0,0.0,0.0,0.0,0.0,0.0,0.0,0.0,0.0,0.0,0
0,364,0,,0,0,22.3055400749,114.179521852,0.0,0.0,0.0,0.0,0.0,0.0,0.0,0.0,0.0,0.0,0
0,365,0,,0,0,22.303824146,114.178853978,0.0,0.0,0.0,0.0,0.0,0.0,0.0,0.0,0.0,0.0,0
0,366,0,,0,0,22.3038293341,114.178867094,0.0,0.0,0.0,0.0,0.0,0.0,0.0,0.0,0.0,0.0,0
0,367,0,,0,0,22.3038444067,114.178884846,0.0,0.0,0.0,0.0,0.0,0.0,0.0,0.0,0.0,0.0,0
0,368,0,,0,0,22.3038396561,114.178900024,0.0,0.0,0.0,0.0,0.0,0.0,0.0,0.0,0.0,0.0,0
0,369,0,,0,0,22.3041000234,114.179039422,0.0,0.0,0.0,0.0,0.0,0.0,0.0,0.0,0.0,0.0,0
0,370,0,,0,0,22.3038933012,114.178949136,0.0,0.0,0.0,0.0,0.0,0.0,0.0,0.0,0.0,0.0,0
0,371,0,,0,0,22.3041874926,114.179107328,0.0,0.0,0.0,0.0,0.0,0.0,0.0,0.0,0.0,0.0,0
0,372,0,,0,0,22.3040256727,114.179069982,0.0,0.0,0.0,0.0,0.0,0.0,0.0,0.0,0.0,0.0,0
0,373,0,,0,0,22.3039873177,114.179056243,0.0,0.0,0.0,0.0,0.0,0.0,0.0,0.0,0.0,0.0,0
0,374,0,,0,0,22.3038534557,114.178955037,0.0,0.0,0.0,0.0,0.0,0.0,0.0,0.0,0.0,0.0,0
0,375,0,,0,0,22.3036213047,114.178892897,0.0,0.0,0.0,0.0,0.0,0.0,0.0,0.0,0.0,0.0,0
0,376,0,,0,0,22.3036998404,114.178904628,0.0,0.0,0.0,0.0,0.0,0.0,0.0,0.0,0.0,0.0,0
0,377,0,,0,0,22.303665043,114.178873756,0.0,0.0,0.0,0.0,0.0,0.0,0.0,0.0,0.0,0.0,0
0,378,0,,0,0,22.3037228613,114.178897813,0.0,0.0,0.0,0.0,0.0,0.0,0.0,0.0,0.0,0.0,0
0,379,0,,0,0,22.3034615141,114.178924994,0.0,0.0,0.0,0.0,0.0,0.0,0.0,0.0,0.0,0.0,0
0,380,0,,0,0,22.3037584921,114.178971086,0.0,0.0,0.0,0.0,0.0,0.0,0.0,0.0,0.0,0.0,0
0,381,0,,0,0,22.3037780754,114.178977979,0.0,0.0,0.0,0.0,0.0,0.0,0.0,0.0,0.0,0.0,0
0,382,0,,0,0,22.3039094482,114.179108696,0.0,0.0,0.0,0.0,0.0,0.0,0.0,0.0,0.0,0.0,0
0,383,0,,0,0,22.3038835157,114.179119873,0.0,0.0,0.0,0.0,0.0,0.0,0.0,0.0,0.0,0.0,0
0,384,0,,0,0,22.3039359929,114.179134519,0.0,0.0,0.0,0.0,0.0,0.0,0.0,0.0,0.0,0.0,0
0,385,0,,0,0,22.3039796284,114.179123669,0.0,0.0,0.0,0.0,0.0,0.0,0.0,0.0,0.0,0.0,0
0,386,0,,0,0,22.3040034104,114.179100785,0.0,0.0,0.0,0.0,0.0,0.0,0.0,0.0,0.0,0.0,0
0,387,0,,0,0,22.3039448116,114.179143071,0.0,0.0,0.0,0.0,0.0,0.0,0.0,0.0,0.0,0.0,0
0,388,0,,0,0,22.304005674,114.179108741,0.0,0.0,0.0,0.0,0.0,0.0,0.0,0.0,0.0,0.0,0
0,389,0,,0,0,22.3040413558,114.178985767,0.0,0.0,0.0,0.0,0.0,0.0,0.0,0.0,0.0,0.0,0
0,390,0,,0,0,22.3039705913,114.17901457,0.0,0.0,0.0,0.0,0.0,0.0,0.0,0.0,0.0,0.0,0
0,391,0,,0,0,22.3036948506,114.178937289,0.0,0.0,0.0,0.0,0.0,0.0,0.0,0.0,0.0,0.0,0
0,392,0,,0,0,22.3034842768,114.178827793,0.0,0.0,0.0,0.0,0.0,0.0,0.0,0.0,0.0,0.0,0
0,393,0,,0,0,22.3034200754,114.178619765,0.0,0.0,0.0,0.0,0.0,0.0,0.0,0.0,0.0,0.0,0
0,394,0,,0,0,22.3034464805,114.178646395,0.0,0.0,0.0,0.0,0.0,0.0,0.0,0.0,0.0,0.0,0
0,395,0,,0,0,22.3034192816,114.178609443,0.0,0.0,0.0,0.0,0.0,0.0,0.0,0.0,0.0,0.0,0
0,396,0,,0,0,22.3035494499,114.178710533,0.0,0.0,0.0,0.0,0.0,0.0,0.0,0.0,0.0,0.0,0
0,397,0,,0,0,22.3035998703,114.17867911,0.0,0.0,0.0,0.0,0.0,0.0,0.0,0.0,0.0,0.0,0
0,398,0,,0,0,22.3039281972,114.178772233,0.0,0.0,0.0,0.0,0.0,0.0,0.0,0.0,0.0,0.0,0
0,399,0,,0,0,22.303914424,114.178779131,0.0,0.0,0.0,0.0,0.0,0.0,0.0,0.0,0.0,0.0,0
0,400,0,,0,0,22.3037706668,114.178773572,0.0,0.0,0.0,0.0,0.0,0.0,0.0,0.0,0.0,0.0,0
0,401,0,,0,0,22.3037951392,114.178791467,0.0,0.0,0.0,0.0,0.0,0.0,0.0,0.0,0.0,0.0,0
0,402,0,,0,0,22.3034710817,114.178660148,0.0,0.0,0.0,0.0,0.0,0.0,0.0,0.0,0.0,0.0,0
0,403,0,,0,0,22.3036662526,114.178136417,0.0,0.0,0.0,0.0,0.0,0.0,0.0,0.0,0.0,0.0,0
0,404,0,,0,0,22.3029017053,114.178985449,0.0,0.0,0.0,0.0,0.0,0.0,0.0,0.0,0.0,0.0,0
0,405,0,,0,0,22.3029720746,114.178666174,0.0,0.0,0.0,0.0,0.0,0.0,0.0,0.0,0.0,0.0,0
0,406,0,,0,0,22.3029311058,114.178674429,0.0,0.0,0.0,0.0,0.0,0.0,0.0,0.0,0.0,0.0,0
0,407,0,,0,0,22.3029280641,114.178740863,0.0,0.0,0.0,0.0,0.0,0.0,0.0,0.0,0.0,0.0,0
0,408,0,,0,0,22.3029340504,114.178743368,0.0,0.0,0.0,0.0,0.0,0.0,0.0,0.0,0.0,0.0,0
0,409,0,,0,0,22.3030164596,114.17875446,0.0,0.0,0.0,0.0,0.0,0.0,0.0,0.0,0.0,0.0,0
0,410,0,,0,0,22.3031169342,114.178862925,0.0,0.0,0.0,0.0,0.0,0.0,0.0,0.0,0.0,0.0,0
0,411,0,,0,0,22.3033084379,114.178469234,0.0,0.0,0.0,0.0,0.0,0.0,0.0,0.0,0.0,0.0,0
0,412,0,,0,0,22.303400633,114.178592113,0.0,0.0,0.0,0.0,0.0,0.0,0.0,0.0,0.0,0.0,0
0,413,0,,0,0,22.3032948394,114.178540144,0.0,0.0,0.0,0.0,0.0,0.0,0.0,0.0,0.0,0.0,0
0,414,0,,0,0,22.3033078317,114.178534501,0.0,0.0,0.0,0.0,0.0,0.0,0.0,0.0,0.0,0.0,0
0,415,0,,0,0,22.3033249358,114.178682314,0.0,0.0,0.0,0.0,0.0,0.0,0.0,0.0,0.0,0.0,0
0,416,0,,0,0,22.3032875556,114.178721571,0.0,0.0,0.0,0.0,0.0,0.0,0.0,0.0,0.0,0.0,0
0,417,0,,0,0,22.3033432796,114.178410179,0.0,0.0,0.0,0.0,0.0,0.0,0.0,0.0,0.0,0.0,0
0,418,0,,0,0,22.3034493551,114.177987665,0.0,0.0,0.0,0.0,0.0,0.0,0.0,0.0,0.0,0.0,0
0,419,0,,0,0,22.3030710327,114.178891427,0.0,0.0,0.0,0.0,0.0,0.0,0.0,0.0,0.0,0.0,0
0,420,0,,0,0,22.302725902,114.178662771,0.0,0.0,0.0,0.0,0.0,0.0,0.0,0.0,0.0,0.0,0
0,421,0,,0,0,22.3025501654,114.17868846,0.0,0.0,0.0,0.0,0.0,0.0,0.0,0.0,0.0,0.0,0
0,422,0,,0,0,22.3026268678,114.178543164,0.0,0.0,0.0,0.0,0.0,0.0,0.0,0.0,0.0,0.0,0
0,423,0,,0,0,22.3024983327,114.178715887,0.0,0.0,0.0,0.0,0.0,0.0,0.0,0.0,0.0,0.0,0
0,424,0,,0,0,22.3032344075,114.178531345,0.0,0.0,0.0,0.0,0.0,0.0,0.0,0.0,0.0,0.0,0
0,425,0,,0,0,22.3025311501,114.178730706,0.0,0.0,0.0,0.0,0.0,0.0,0.0,0.0,0.0,0.0,0
0,426,0,,0,0,22.302346306,114.178735682,0.0,0.0,0.0,0.0,0.0,0.0,0.0,0.0,0.0,0.0,0
0,427,0,,0,0,22.3022530046,114.178774888,0.0,0.0,0.0,0.0,0.0,0.0,0.0,0.0,0.0,0.0,0
0,428,0,,0,0,22.3022296872,114.178771804,0.0,0.0,0.0,0.0,0.0,0.0,0.0,0.0,0.0,0.0,0
0,429,0,,0,0,22.3022022816,114.178767664,0.0,0.0,0.0,0.0,0.0,0.0,0.0,0.0,0.0,0.0,0
0,430,0,,0,0,22.3021688428,114.178825475,0.0,0.0,0.0,0.0,0.0,0.0,0.0,0.0,0.0,0.0,0
0,431,0,,0,0,22.3021734657,114.178809027,0.0,0.0,0.0,0.0,0.0,0.0,0.0,0.0,0.0,0.0,0
0,432,0,,0,0,22.302763998,114.178659187,0.0,0.0,0.0,0.0,0.0,0.0,0.0,0.0,0.0,0.0,0
0,433,0,,0,0,22.3024918928,114.178631235,0.0,0.0,0.0,0.0,0.0,0.0,0.0,0.0,0.0,0.0,0
0,434,0,,0,0,22.3024858325,114.178638826,0.0,0.0,0.0,0.0,0.0,0.0,0.0,0.0,0.0,0.0,0
0,435,0,,0,0,22.3024433118,114.178652081,0.0,0.0,0.0,0.0,0.0,0.0,0.0,0.0,0.0,0.0,0
0,436,0,,0,0,22.3026138632,114.178759991,0.0,0.0,0.0,0.0,0.0,0.0,0.0,0.0,0.0,0.0,0
0,437,0,,0,0,22.3019196259,114.17877541,0.0,0.0,0.0,0.0,0.0,0.0,0.0,0.0,0.0,0.0,0
0,438,0,,0,0,22.3020725388,114.17893763,0.0,0.0,0.0,0.0,0.0,0.0,0.0,0.0,0.0,0.0,0
0,439,0,,0,0,22.3022679515,114.178967279,0.0,0.0,0.0,0.0,0.0,0.0,0.0,0.0,0.0,0.0,0
0,440,0,,0,0,22.302297437,114.178978759,0.0,0.0,0.0,0.0,0.0,0.0,0.0,0.0,0.0,0.0,0
0,441,0,,0,0,22.3023039598,114.178985056,0.0,0.0,0.0,0.0,0.0,0.0,0.0,0.0,0.0,0.0,0
0,442,0,,0,0,22.3022512165,114.178976455,0.0,0.0,0.0,0.0,0.0,0.0,0.0,0.0,0.0,0.0,0
0,443,0,,0,0,22.3022191919,114.178957879,0.0,0.0,0.0,0.0,0.0,0.0,0.0,0.0,0.0,0.0,0
0,444,0,,0,0,22.3021401993,114.179017228,0.0,0.0,0.0,0.0,0.0,0.0,0.0,0.0,0.0,0.0,0
0,445,0,,0,0,22.3021037633,114.17903982,0.0,0.0,0.0,0.0,0.0,0.0,0.0,0.0,0.0,0.0,0
0,446,0,,0,0,22.3021464785,114.178977087,0.0,0.0,0.0,0.0,0.0,0.0,0.0,0.0,0.0,0.0,0
0,447,0,,0,0,22.3023785825,114.178956572,0.0,0.0,0.0,0.0,0.0,0.0,0.0,0.0,0.0,0.0,0
0,448,0,,0,0,22.3019920556,114.178854161,0.0,0.0,0.0,0.0,0.0,0.0,0.0,0.0,0.0,0.0,0
0,449,0,,0,0,22.3023756428,114.178955661,0.0,0.0,0.0,0.0,0.0,0.0,0.0,0.0,0.0,0.0,0
0,450,0,,0,0,22.3019766098,114.17884062,0.0,0.0,0.0,0.0,0.0,0.0,0.0,0.0,0.0,0.0,0
0,451,0,,0,0,22.3024481394,114.179009252,0.0,0.0,0.0,0.0,0.0,0.0,0.0,0.0,0.0,0.0,0
0,452,0,,0,0,22.3023633344,114.179038379,0.0,0.0,0.0,0.0,0.0,0.0,0.0,0.0,0.0,0.0,0
0,453,0,,0,0,22.3024421629,114.179043731,0.0,0.0,0.0,0.0,0.0,0.0,0.0,0.0,0.0,0.0,0
0,454,0,,0,0,22.3024227351,114.179082874,0.0,0.0,0.0,0.0,0.0,0.0,0.0,0.0,0.0,0.0,0
0,455,0,,0,0,22.3025224503,114.179077099,0.0,0.0,0.0,0.0,0.0,0.0,0.0,0.0,0.0,0.0,0
0,456,0,,0,0,22.3021894299,114.179073054,0.0,0.0,0.0,0.0,0.0,0.0,0.0,0.0,0.0,0.0,0
0,457,0,,0,0,22.3021412684,114.179111953,0.0,0.0,0.0,0.0,0.0,0.0,0.0,0.0,0.0,0.0,0
0,458,0,,0,0,22.3020817588,114.17911462,0.0,0.0,0.0,0.0,0.0,0.0,0.0,0.0,0.0,0.0,0
0,459,0,,0,0,22.3019899463,114.179186131,0.0,0.0,0.0,0.0,0.0,0.0,0.0,0.0,0.0,0.0,0
0,460,0,,0,0,22.302048504,114.179209714,0.0,0.0,0.0,0.0,0.0,0.0,0.0,0.0,0.0,0.0,0
0,461,0,,0,0,22.3020405083,114.179310581,0.0,0.0,0.0,0.0,0.0,0.0,0.0,0.0,0.0,0.0,0
0,462,0,,0,0,22.3020792601,114.179390068,0.0,0.0,0.0,0.0,0.0,0.0,0.0,0.0,0.0,0.0,0
0,463,0,,0,0,22.3023801452,114.179549691,0.0,0.0,0.0,0.0,0.0,0.0,0.0,0.0,0.0,0.0,0
0,464,0,,0,0,22.302248552,114.179636287,0.0,0.0,0.0,0.0,0.0,0.0,0.0,0.0,0.0,0.0,0
0,465,0,,0,0,22.3019944969,114.179677288,0.0,0.0,0.0,0.0,0.0,0.0,0.0,0.0,0.0,0.0,0
0,466,0,,0,0,22.3025501971,114.179749951,0.0,0.0,0.0,0.0,0.0,0.0,0.0,0.0,0.0,0.0,0
0,467,0,,0,0,22.302319524,114.179807204,0.0,0.0,0.0,0.0,0.0,0.0,0.0,0.0,0.0,0.0,0
0,468,0,,0,0,22.302357107,114.179786159,0.0,0.0,0.0,0.0,0.0,0.0,0.0,0.0,0.0,0.0,0
0,469,0,,0,0,22.3020592809,114.17975607,0.0,0.0,0.0,0.0,0.0,0.0,0.0,0.0,0.0,0.0,0
0,470,0,,0,0,22.302396751,114.179815119,0.0,0.0,0.0,0.0,0.0,0.0,0.0,0.0,0.0,0.0,0
0,471,0,,0,0,22.3028306956,114.179849716,0.0,0.0,0.0,0.0,0.0,0.0,0.0,0.0,0.0,0.0,0
0,472,0,,0,0,22.3029067565,114.17986668,0.0,0.0,0.0,0.0,0.0,0.0,0.0,0.0,0.0,0.0,0
0,473,0,,0,0,22.3028020321,114.179941228,0.0,0.0,0.0,0.0,0.0,0.0,0.0,0.0,0.0,0.0,0
0,474,0,,0,0,22.3029948916,114.17992521,0.0,0.0,0.0,0.0,0.0,0.0,0.0,0.0,0.0,0.0,0
0,475,0,,0,0,22.3028577532,114.179996392,0.0,0.0,0.0,0.0,0.0,0.0,0.0,0.0,0.0,0.0,0
0,476,0,,0,0,22.3029719352,114.180083742,0.0,0.0,0.0,0.0,0.0,0.0,0.0,0.0,0.0,0.0,0
0,477,0,,0,0,22.3030268202,114.180121046,0.0,0.0,0.0,0.0,0.0,0.0,0.0,0.0,0.0,0.0,0
0,478,0,,0,0,22.3030580936,114.180164066,0.0,0.0,0.0,0.0,0.0,0.0,0.0,0.0,0.0,0.0,0
0,479,0,,0,0,22.303105298,114.180221763,0.0,0.0,0.0,0.0,0.0,0.0,0.0,0.0,0.0,0.0,0
0,480,0,,0,0,22.3031594891,114.180269403,0.0,0.0,0.0,0.0,0.0,0.0,0.0,0.0,0.0,0.0,0
0,481,0,,0,0,22.3031771452,114.180321772,0.0,0.0,0.0,0.0,0.0,0.0,0.0,0.0,0.0,0.0,0
0,482,0,,0,0,22.3032235214,114.180388118,0.0,0.0,0.0,0.0,0.0,0.0,0.0,0.0,0.0,0.0,0
0,483,0,,0,0,22.3031515671,114.180392948,0.0,0.0,0.0,0.0,0.0,0.0,0.0,0.0,0.0,0.0,0
0,484,0,,0,0,22.3033361528,114.180443715,0.0,0.0,0.0,0.0,0.0,0.0,0.0,0.0,0.0,0.0,0
0,485,0,,0,0,22.3046042146,114.181253337,0.0,0.0,0.0,0.0,0.0,0.0,0.0,0.0,0.0,0.0,0
0,486,0,,0,0,22.3048529681,114.181022159,0.0,0.0,0.0,0.0,0.0,0.0,0.0,0.0,0.0,0.0,0
0,487,0,,0,0,22.3035328369,114.180504442,0.0,0.0,0.0,0.0,0.0,0.0,0.0,0.0,0.0,0.0,0
0,488,0,,0,0,22.3035533152,114.180587998,0.0,0.0,0.0,0.0,0.0,0.0,0.0,0.0,0.0,0.0,0
0,489,0,,0,0,22.3036275133,114.180634489,0.0,0.0,0.0,0.0,0.0,0.0,0.0,0.0,0.0,0.0,0
0,490,0,,0,0,22.3036354848,114.180652623,0.0,0.0,0.0,0.0,0.0,0.0,0.0,0.0,0.0,0.0,0
0,491,0,,0,0,22.3037255909,114.180712895,0.0,0.0,0.0,0.0,0.0,0.0,0.0,0.0,0.0,0.0,0
0,492,0,,0,0,22.3037733019,114.180633449,0.0,0.0,0.0,0.0,0.0,0.0,0.0,0.0,0.0,0.0,0
0,493,0,,0,0,22.3038224439,114.180661711,0.0,0.0,0.0,0.0,0.0,0.0,0.0,0.0,0.0,0.0,0
0,494,0,,0,0,22.3038799124,114.180696054,0.0,0.0,0.0,0.0,0.0,0.0,0.0,0.0,0.0,0.0,0
0,495,0,,0,0,22.3039071171,114.180706151,0.0,0.0,0.0,0.0,0.0,0.0,0.0,0.0,0.0,0.0,0
0,496,0,,0,0,22.3039628045,114.180698647,0.0,0.0,0.0,0.0,0.0,0.0,0.0,0.0,0.0,0.0,0
0,497,0,,0,0,22.3039800667,114.180841077,0.0,0.0,0.0,0.0,0.0,0.0,0.0,0.0,0.0,0.0,0
0,498,0,,0,0,22.3040709234,114.180792686,0.0,0.0,0.0,0.0,0.0,0.0,0.0,0.0,0.0,0.0,0
0,499,0,,0,0,22.3040865044,114.180895286,0.0,0.0,0.0,0.0,0.0,0.0,0.0,0.0,0.0,0.0,0
0,500,0,,0,0,22.3041882115,114.180858184,0.0,0.0,0.0,0.0,0.0,0.0,0.0,0.0,0.0,0.0,0
0,501,0,,0,0,22.3041860019,114.180842257,0.0,0.0,0.0,0.0,0.0,0.0,0.0,0.0,0.0,0.0,0
0,502,0,,0,0,22.3042829439,114.180847768,0.0,0.0,0.0,0.0,0.0,0.0,0.0,0.0,0.0,0.0,0
0,503,0,,0,0,22.3043187304,114.180830105,0.0,0.0,0.0,0.0,0.0,0.0,0.0,0.0,0.0,0.0,0
0,504,0,,0,0,22.3043432939,114.180852515,0.0,0.0,0.0,0.0,0.0,0.0,0.0,0.0,0.0,0.0,0
0,505,0,,0,0,22.3043835585,114.180911899,0.0,0.0,0.0,0.0,0.0,0.0,0.0,0.0,0.0,0.0,0
0,506,0,,0,0,22.3044420311,114.180960192,0.0,0.0,0.0,0.0,0.0,0.0,0.0,0.0,0.0,0.0,0
0,507,0,,0,0,22.3045038027,114.180965737,0.0,0.0,0.0,0.0,0.0,0.0,0.0,0.0,0.0,0.0,0
0,508,0,,0,0,22.3042949638,114.18132925,0.0,0.0,0.0,0.0,0.0,0.0,0.0,0.0,0.0,0.0,0
0,509,0,,0,0,22.3043234067,114.181357409,0.0,0.0,0.0,0.0,0.0,0.0,0.0,0.0,0.0,0.0,0
0,510,0,,0,0,22.3043901184,114.181358183,0.0,0.0,0.0,0.0,0.0,0.0,0.0,0.0,0.0,0.0,0
0,511,0,,0,0,22.3044972625,114.181278434,0.0,0.0,0.0,0.0,0.0,0.0,0.0,0.0,0.0,0.0,0
0,512,0,,0,0,22.3045418065,114.181286769,0.0,0.0,0.0,0.0,0.0,0.0,0.0,0.0,0.0,0.0,0
0,513,0,,0,0,22.3046604861,114.181264595,0.0,0.0,0.0,0.0,0.0,0.0,0.0,0.0,0.0,0.0,0
0,514,0,,0,0,22.3047304791,114.181289598,0.0,0.0,0.0,0.0,0.0,0.0,0.0,0.0,0.0,0.0,0
0,515,0,,0,0,22.3048860684,114.181174418,0.0,0.0,0.0,0.0,0.0,0.0,0.0,0.0,0.0,0.0,0
0,516,0,,0,0,22.3049442483,114.181176072,0.0,0.0,0.0,0.0,0.0,0.0,0.0,0.0,0.0,0.0,0
0,517,0,,0,0,22.3049902425,114.181200548,0.0,0.0,0.0,0.0,0.0,0.0,0.0,0.0,0.0,0.0,0
0,518,0,,0,0,22.3050488769,114.181222037,0.0,0.0,0.0,0.0,0.0,0.0,0.0,0.0,0.0,0.0,0
0,519,0,,0,0,22.3051044862,114.18120858,0.0,0.0,0.0,0.0,0.0,0.0,0.0,0.0,0.0,0.0,0
0,520,0,,0,0,22.3051331245,114.1812416,0.0,0.0,0.0,0.0,0.0,0.0,0.0,0.0,0.0,0.0,0
0,521,0,,0,0,22.3051811679,114.181268077,0.0,0.0,0.0,0.0,0.0,0.0,0.0,0.0,0.0,0.0,0
0,522,0,,0,0,22.3052327476,114.181305852,0.0,0.0,0.0,0.0,0.0,0.0,0.0,0.0,0.0,0.0,0
0,523,0,,0,0,22.3052653368,114.18131406,0.0,0.0,0.0,0.0,0.0,0.0,0.0,0.0,0.0,0.0,0
0,524,0,,0,0,22.3053066219,114.181337134,0.0,0.0,0.0,0.0,0.0,0.0,0.0,0.0,0.0,0.0,0
0,525,0,,0,0,22.3053230196,114.18134988,0.0,0.0,0.0,0.0,0.0,0.0,0.0,0.0,0.0,0.0,0
0,526,0,,0,0,22.3053490646,114.18133647,0.0,0.0,0.0,0.0,0.0,0.0,0.0,0.0,0.0,0.0,0
0,527,0,,0,0,22.3052709801,114.181479628,0.0,0.0,0.0,0.0,0.0,0.0,0.0,0.0,0.0,0.0,0
0,528,0,,0,0,22.3053201814,114.181397787,0.0,0.0,0.0,0.0,0.0,0.0,0.0,0.0,0.0,0.0,0
0,529,0,,0,0,22.3053311781,114.181357159,0.0,0.0,0.0,0.0,0.0,0.0,0.0,0.0,0.0,0.0,0
0,530,0,,0,0,22.3053713451,114.181352163,0.0,0.0,0.0,0.0,0.0,0.0,0.0,0.0,0.0,0.0,0
0,531,0,,0,0,22.3053535269,114.18132426,0.0,0.0,0.0,0.0,0.0,0.0,0.0,0.0,0.0,0.0,0
0,532,0,,0,0,22.3053800801,114.181294688,0.0,0.0,0.0,0.0,0.0,0.0,0.0,0.0,0.0,0.0,0
0,533,0,,0,0,22.3053826618,114.181324285,0.0,0.0,0.0,0.0,0.0,0.0,0.0,0.0,0.0,0.0,0
0,534,0,,0,0,22.305395013,114.18130899,0.0,0.0,0.0,0.0,0.0,0.0,0.0,0.0,0.0,0.0,0
0,535,0,,0,0,22.305386155,114.181311808,0.0,0.0,0.0,0.0,0.0,0.0,0.0,0.0,0.0,0.0,0
0,536,0,,0,0,22.3053848969,114.181321834,0.0,0.0,0.0,0.0,0.0,0.0,0.0,0.0,0.0,0.0,0
0,537,0,,0,0,22.3053745166,114.181304709,0.0,0.0,0.0,0.0,0.0,0.0,0.0,0.0,0.0,0.0,0
0,538,0,,0,0,22.3053910242,114.181284408,0.0,0.0,0.0,0.0,0.0,0.0,0.0,0.0,0.0,0.0,0
0,539,0,,0,0,22.305389203,114.181281014,0.0,0.0,0.0,0.0,0.0,0.0,0.0,0.0,0.0,0.0,0
0,540,0,,0,0,22.3054079753,114.181290012,0.0,0.0,0.0,0.0,0.0,0.0,0.0,0.0,0.0,0.0,0
0,541,0,,0,0,22.3054287895,114.181270543,0.0,0.0,0.0,0.0,0.0,0.0,0.0,0.0,0.0,0.0,0
0,542,0,,0,0,22.3054232071,114.181314535,0.0,0.0,0.0,0.0,0.0,0.0,0.0,0.0,0.0,0.0,0
0,543,0,,0,0,22.3054286029,114.181340751,0.0,0.0,0.0,0.0,0.0,0.0,0.0,0.0,0.0,0.0,0
0,544,0,,0,0,22.3054354755,114.181294793,0.0,0.0,0.0,0.0,0.0,0.0,0.0,0.0,0.0,0.0,0
0,545,0,,0,0,22.3054098672,114.18134055,0.0,0.0,0.0,0.0,0.0,0.0,0.0,0.0,0.0,0.0,0
0,546,0,,0,0,22.3054822258,114.181349104,0.0,0.0,0.0,0.0,0.0,0.0,0.0,0.0,0.0,0.0,0
0,547,0,,0,0,22.3054940332,114.181356033,0.0,0.0,0.0,0.0,0.0,0.0,0.0,0.0,0.0,0.0,0
0,548,0,,0,0,22.3054800164,114.18135815,0.0,0.0,0.0,0.0,0.0,0.0,0.0,0.0,0.0,0.0,0
0,549,0,,0,0,22.3054223124,114.181339617,0.0,0.0,0.0,0.0,0.0,0.0,0.0,0.0,0.0,0.0,0
0,550,0,,0,0,22.3054779488,114.181370663,0.0,0.0,0.0,0.0,0.0,0.0,0.0,0.0,0.0,0.0,0
0,551,0,,0,0,22.3054892561,114.181388129,0.0,0.0,0.0,0.0,0.0,0.0,0.0,0.0,0.0,0.0,0
0,552,0,,0,0,22.3054832029,114.18139108,0.0,0.0,0.0,0.0,0.0,0.0,0.0,0.0,0.0,0.0,0
0,553,0,,0,0,22.3055181249,114.181361506,0.0,0.0,0.0,0.0,0.0,0.0,0.0,0.0,0.0,0.0,0
0,554,0,,0,0,22.3055120844,114.181355973,0.0,0.0,0.0,0.0,0.0,0.0,0.0,0.0,0.0,0.0,0
0,555,0,,0,0,22.3055211912,114.181385124,0.0,0.0,0.0,0.0,0.0,0.0,0.0,0.0,0.0,0.0,0
0,556,0,,0,0,22.3055102139,114.181391226,0.0,0.0,0.0,0.0,0.0,0.0,0.0,0.0,0.0,0.0,0
0,557,0,,0,0,22.3055223758,114.181403813,0.0,0.0,0.0,0.0,0.0,0.0,0.0,0.0,0.0,0.0,0
0,558,0,,0,0,22.3055465494,114.181392278,0.0,0.0,0.0,0.0,0.0,0.0,0.0,0.0,0.0,0.0,0
0,559,0,,0,0,22.3053967174,114.181368408,0.0,0.0,0.0,0.0,0.0,0.0,0.0,0.0,0.0,0.0,0
0,560,0,,0,0,22.3053967604,114.181343338,0.0,0.0,0.0,0.0,0.0,0.0,0.0,0.0,0.0,0.0,0
0,561,0,,0,0,22.3053903125,114.181311328,0.0,0.0,0.0,0.0,0.0,0.0,0.0,0.0,0.0,0.0,0
0,562,0,,0,0,22.3054140428,114.1813577,0.0,0.0,0.0,0.0,0.0,0.0,0.0,0.0,0.0,0.0,0
0,563,0,,0,0,22.3055756809,114.181444936,0.0,0.0,0.0,0.0,0.0,0.0,0.0,0.0,0.0,0.0,0
0,564,0,,0,0,22.3055977544,114.181507573,0.0,0.0,0.0,0.0,0.0,0.0,0.0,0.0,0.0,0.0,0
0,565,0,,0,0,22.3055740974,114.181424845,0.0,0.0,0.0,0.0,0.0,0.0,0.0,0.0,0.0,0.0,0
0,566,0,,0,0,22.3055935409,114.181429351,0.0,0.0,0.0,0.0,0.0,0.0,0.0,0.0,0.0,0.0,0
0,567,0,,0,0,22.3056335067,114.181469773,0.0,0.0,0.0,0.0,0.0,0.0,0.0,0.0,0.0,0.0,0
0,568,0,,0,0,22.3056234681,114.181474105,0.0,0.0,0.0,0.0,0.0,0.0,0.0,0.0,0.0,0.0,0
0,569,0,,0,0,22.3056913834,114.181485097,0.0,0.0,0.0,0.0,0.0,0.0,0.0,0.0,0.0,0.0,0
0,570,0,,0,0,22.3058932217,114.18143674,0.0,0.0,0.0,0.0,0.0,0.0,0.0,0.0,0.0,0.0,0
0,571,0,,0,0,22.3060026407,114.181465743,0.0,0.0,0.0,0.0,0.0,0.0,0.0,0.0,0.0,0.0,0
0,572,0,,0,0,22.3060676206,114.181469456,0.0,0.0,0.0,0.0,0.0,0.0,0.0,0.0,0.0,0.0,0
0,573,0,,0,0,22.3060724792,114.181398996,0.0,0.0,0.0,0.0,0.0,0.0,0.0,0.0,0.0,0.0,0
0,574,0,,0,0,22.306163651,114.181391677,0.0,0.0,0.0,0.0,0.0,0.0,0.0,0.0,0.0,0.0,0
0,575,0,,0,0,22.3061006088,114.181289392,0.0,0.0,0.0,0.0,0.0,0.0,0.0,0.0,0.0,0.0,0
0,576,0,,0,0,22.3064507127,114.181457162,0.0,0.0,0.0,0.0,0.0,0.0,0.0,0.0,0.0,0.0,0
0,577,0,,0,0,22.3064856741,114.181431824,0.0,0.0,0.0,0.0,0.0,0.0,0.0,0.0,0.0,0.0,0
0,578,0,,0,0,22.3062256714,114.181181302,0.0,0.0,0.0,0.0,0.0,0.0,0.0,0.0,0.0,0.0,0
0,579,0,,0,0,22.3062395345,114.181111432,0.0,0.0,0.0,0.0,0.0,0.0,0.0,0.0,0.0,0.0,0
0,580,0,,0,0,22.3062291299,114.181023508,0.0,0.0,0.0,0.0,0.0,0.0,0.0,0.0,0.0,0.0,0
0,581,0,,0,0,22.3061752466,114.180904168,0.0,0.0,0.0,0.0,0.0,0.0,0.0,0.0,0.0,0.0,0
0,582,0,,0,0,22.3061781487,114.180849956,0.0,0.0,0.0,0.0,0.0,0.0,0.0,0.0,0.0,0.0,0
0,583,0,,0,0,22.306177462,114.180812553,0.0,0.0,0.0,0.0,0.0,0.0,0.0,0.0,0.0,0.0,0
0,584,0,,0,0,22.3062416534,114.180788484,0.0,0.0,0.0,0.0,0.0,0.0,0.0,0.0,0.0,0.0,0
0,585,0,,0,0,22.3062613638,114.180722849,0.0,0.0,0.0,0.0,0.0,0.0,0.0,0.0,0.0,0.0,0
0,586,0,,0,0,22.3061928142,114.180711843,0.0,0.0,0.0,0.0,0.0,0.0,0.0,0.0,0.0,0.0,0
0,587,0,,0,0,22.3061891231,114.180621111,0.0,0.0,0.0,0.0,0.0,0.0,0.0,0.0,0.0,0.0,0
0,588,0,,0,0,22.3061750752,114.18061073,0.0,0.0,0.0,0.0,0.0,0.0,0.0,0.0,0.0,0.0,0
0,589,0,,0,0,22.3061324931,114.180587993,0.0,0.0,0.0,0.0,0.0,0.0,0.0,0.0,0.0,0.0,0
0,590,0,,0,0,22.3067619082,114.180845206,0.0,0.0,0.0,0.0,0.0,0.0,0.0,0.0,0.0,0.0,0
0,591,0,,0,0,22.3060683422,114.180565556,0.0,0.0,0.0,0.0,0.0,0.0,0.0,0.0,0.0,0.0,0
0,592,0,,0,0,22.3060890696,114.180513509,0.0,0.0,0.0,0.0,0.0,0.0,0.0,0.0,0.0,0.0,0
0,593,0,,0,0,22.3061372243,114.180389581,0.0,0.0,0.0,0.0,0.0,0.0,0.0,0.0,0.0,0.0,0
0,594,0,,0,0,22.3061701165,114.180333961,0.0,0.0,0.0,0.0,0.0,0.0,0.0,0.0,0.0,0.0,0
0,595,0,,0,0,22.3062299018,114.1802537,0.0,0.0,0.0,0.0,0.0,0.0,0.0,0.0,0.0,0.0,0
0,596,0,,0,0,22.3063360078,114.180227402,0.0,0.0,0.0,0.0,0.0,0.0,0.0,0.0,0.0,0.0,0
0,597,0,,0,0,22.3063849775,114.180171478,0.0,0.0,0.0,0.0,0.0,0.0,0.0,0.0,0.0,0.0,0
0,598,0,,0,0,22.3063999854,114.179929375,0.0,0.0,0.0,0.0,0.0,0.0,0.0,0.0,0.0,0.0,0
0,599,0,,0,0,22.3063436936,114.179854621,0.0,0.0,0.0,0.0,0.0,0.0,0.0,0.0,0.0,0.0,0
0,600,0,,0,0,22.3064916882,114.179967842,0.0,0.0,0.0,0.0,0.0,0.0,0.0,0.0,0.0,0.0,0
0,601,0,,0,0,22.3065014881,114.179911606,0.0,0.0,0.0,0.0,0.0,0.0,0.0,0.0,0.0,0.0,0
0,602,0,,0,0,22.3064739007,114.17975334,0.0,0.0,0.0,0.0,0.0,0.0,0.0,0.0,0.0,0.0,0
0,603,0,,0,0,22.3062181139,114.179688716,0.0,0.0,0.0,0.0,0.0,0.0,0.0,0.0,0.0,0.0,0
0,604,0,,0,0,22.3063740322,114.179819679,0.0,0.0,0.0,0.0,0.0,0.0,0.0,0.0,0.0,0.0,0
0,605,0,,0,0,22.3062357344,114.179672982,0.0,0.0,0.0,0.0,0.0,0.0,0.0,0.0,0.0,0.0,0
0,606,0,,0,0,22.3060838189,114.17986602,0.0,0.0,0.0,0.0,0.0,0.0,0.0,0.0,0.0,0.0,0
0,607,0,,0,0,22.3060273826,114.179841221,0.0,0.0,0.0,0.0,0.0,0.0,0.0,0.0,0.0,0.0,0
0,608,0,,0,0,22.3060916349,114.179585281,0.0,0.0,0.0,0.0,0.0,0.0,0.0,0.0,0.0,0.0,0
0,609,0,,0,0,22.3060688509,114.179638197,0.0,0.0,0.0,0.0,0.0,0.0,0.0,0.0,0.0,0.0,0
0,610,0,,0,0,22.3060448244,114.179623305,0.0,0.0,0.0,0.0,0.0,0.0,0.0,0.0,0.0,0.0,0
0,611,0,,0,0,22.3060424166,114.179593982,0.0,0.0,0.0,0.0,0.0,0.0,0.0,0.0,0.0,0.0,0
0,612,0,,0,0,22.3060056731,114.17953854,0.0,0.0,0.0,0.0,0.0,0.0,0.0,0.0,0.0,0.0,0
0,613,0,,0,0,22.3059871844,114.179519071,0.0,0.0,0.0,0.0,0.0,0.0,0.0,0.0,0.0,0.0,0
0,614,0,,0,0,22.3059502104,114.179456496,0.0,0.0,0.0,0.0,0.0,0.0,0.0,0.0,0.0,0.0,0
0,615,0,,0,0,22.3059897694,114.179376693,0.0,0.0,0.0,0.0,0.0,0.0,0.0,0.0,0.0,0.0,0
0,616,0,,0,0,22.3057830841,114.179485994,0.0,0.0,0.0,0.0,0.0,0.0,0.0,0.0,0.0,0.0,0
0,617,0,,0,0,22.3059793389,114.179355512,0.0,0.0,0.0,0.0,0.0,0.0,0.0,0.0,0.0,0.0,0
0,618,0,,0,0,22.3058278625,114.179340069,0.0,0.0,0.0,0.0,0.0,0.0,0.0,0.0,0.0,0.0,0
0,619,0,,0,0,22.3058197982,114.179240913,0.0,0.0,0.0,0.0,0.0,0.0,0.0,0.0,0.0,0.0,0
0,620,0,,0,0,22.3058205332,114.179196724,0.0,0.0,0.0,0.0,0.0,0.0,0.0,0.0,0.0,0.0,0
0,621,0,,0,0,22.3057958302,114.179150989,0.0,0.0,0.0,0.0,0.0,0.0,0.0,0.0,0.0,0.0,0
0,622,0,,0,0,22.305645609,114.179064728,0.0,0.0,0.0,0.0,0.0,0.0,0.0,0.0,0.0,0.0,0
0,623,0,,0,0,22.30562237,114.179047775,0.0,0.0,0.0,0.0,0.0,0.0,0.0,0.0,0.0,0.0,0
0,624,0,,0,0,22.3056055902,114.179027275,0.0,0.0,0.0,0.0,0.0,0.0,0.0,0.0,0.0,0.0,0
0,625,0,,0,0,22.305591721,114.178960535,0.0,0.0,0.0,0.0,0.0,0.0,0.0,0.0,0.0,0.0,0
0,626,0,,0,0,22.3055899573,114.178919867,0.0,0.0,0.0,0.0,0.0,0.0,0.0,0.0,0.0,0.0,0
0,627,0,,0,0,22.3055681125,114.178854506,0.0,0.0,0.0,0.0,0.0,0.0,0.0,0.0,0.0,0.0,0
0,628,0,,0,0,22.3055378432,114.178808504,0.0,0.0,0.0,0.0,0.0,0.0,0.0,0.0,0.0,0.0,0
0,629,0,,0,0,22.3055010433,114.178777093,0.0,0.0,0.0,0.0,0.0,0.0,0.0,0.0,0.0,0.0,0
0,630,0,,0,0,22.3054124864,114.178740867,0.0,0.0,0.0,0.0,0.0,0.0,0.0,0.0,0.0,0.0,0
0,631,0,,0,0,22.3053684651,114.17869905,0.0,0.0,0.0,0.0,0.0,0.0,0.0,0.0,0.0,0.0,0
0,632,0,,0,0,22.3053440062,114.178676734,0.0,0.0,0.0,0.0,0.0,0.0,0.0,0.0,0.0,0.0,0
0,633,0,,0,0,22.3053187095,114.178629252,0.0,0.0,0.0,0.0,0.0,0.0,0.0,0.0,0.0,0.0,0
0,634,0,,0,0,22.3052764168,114.178594485,0.0,0.0,0.0,0.0,0.0,0.0,0.0,0.0,0.0,0.0,0
0,635,0,,0,0,22.3052163946,114.178556945,0.0,0.0,0.0,0.0,0.0,0.0,0.0,0.0,0.0,0.0,0
0,636,0,,0,0,22.3051816336,114.178489906,0.0,0.0,0.0,0.0,0.0,0.0,0.0,0.0,0.0,0.0,0
0,637,0,,0,0,22.3050913787,114.178500109,0.0,0.0,0.0,0.0,0.0,0.0,0.0,0.0,0.0,0.0,0
0,638,0,,0,0,22.3051083058,114.178506849,0.0,0.0,0.0,0.0,0.0,0.0,0.0,0.0,0.0,0.0,0
0,639,0,,0,0,22.3049377306,114.178481246,0.0,0.0,0.0,0.0,0.0,0.0,0.0,0.0,0.0,0.0,0
0,640,0,,0,0,22.3049463009,114.178388416,0.0,0.0,0.0,0.0,0.0,0.0,0.0,0.0,0.0,0.0,0
0,641,0,,0,0,22.3048061908,114.178421017,0.0,0.0,0.0,0.0,0.0,0.0,0.0,0.0,0.0,0.0,0
0,642,0,,0,0,22.3047176493,114.178416146,0.0,0.0,0.0,0.0,0.0,0.0,0.0,0.0,0.0,0.0,0
0,643,0,,0,0,22.3047130367,114.17836334,0.0,0.0,0.0,0.0,0.0,0.0,0.0,0.0,0.0,0.0,0
0,644,0,,0,0,22.3046513569,114.178335903,0.0,0.0,0.0,0.0,0.0,0.0,0.0,0.0,0.0,0.0,0
0,645,0,,0,0,22.304508333,114.178328544,0.0,0.0,0.0,0.0,0.0,0.0,0.0,0.0,0.0,0.0,0
0,646,0,,0,0,22.3044564626,114.178335574,0.0,0.0,0.0,0.0,0.0,0.0,0.0,0.0,0.0,0.0,0
0,647,0,,0,0,22.3043540224,114.178326541,0.0,0.0,0.0,0.0,0.0,0.0,0.0,0.0,0.0,0.0,0
0,648,0,,0,0,22.3042712544,114.178291876,0.0,0.0,0.0,0.0,0.0,0.0,0.0,0.0,0.0,0.0,0
0,649,0,,0,0,22.3042177358,114.17828524,0.0,0.0,0.0,0.0,0.0,0.0,0.0,0.0,0.0,0.0,0
0,650,0,,0,0,22.3041767608,114.178256527,0.0,0.0,0.0,0.0,0.0,0.0,0.0,0.0,0.0,0.0,0
0,651,0,,0,0,22.3041131226,114.178245822,0.0,0.0,0.0,0.0,0.0,0.0,0.0,0.0,0.0,0.0,0
0,652,0,,0,0,22.3040888698,114.178189966,0.0,0.0,0.0,0.0,0.0,0.0,0.0,0.0,0.0,0.0,0
0,653,0,,0,0,22.3040520596,114.178135179,0.0,0.0,0.0,0.0,0.0,0.0,0.0,0.0,0.0,0.0,0
0,654,0,,0,0,22.3039919544,114.178132371,0.0,0.0,0.0,0.0,0.0,0.0,0.0,0.0,0.0,0.0,0
0,655,0,,0,0,22.3039327998,114.178097694,0.0,0.0,0.0,0.0,0.0,0.0,0.0,0.0,0.0,0.0,0
0,656,0,,0,0,22.3038643592,114.178092121,0.0,0.0,0.0,0.0,0.0,0.0,0.0,0.0,0.0,0.0,0
0,657,0,,0,0,22.3038362229,114.178043381,0.0,0.0,0.0,0.0,0.0,0.0,0.0,0.0,0.0,0.0,0
0,658,0,,0,0,22.3037897557,114.178017771,0.0,0.0,0.0,0.0,0.0,0.0,0.0,0.0,0.0,0.0,0
0,659,0,,0,0,22.3037629205,114.177979459,0.0,0.0,0.0,0.0,0.0,0.0,0.0,0.0,0.0,0.0,0
0,660,0,,0,0,22.3037179168,114.17795423,0.0,0.0,0.0,0.0,0.0,0.0,0.0,0.0,0.0,0.0,0
0,661,0,,0,0,22.3037233354,114.177910134,0.0,0.0,0.0,0.0,0.0,0.0,0.0,0.0,0.0,0.0,0
0,662,0,,0,0,22.3036766391,114.177917158,0.0,0.0,0.0,0.0,0.0,0.0,0.0,0.0,0.0,0.0,0
0,663,0,,0,0,22.3036611101,114.177888195,0.0,0.0,0.0,0.0,0.0,0.0,0.0,0.0,0.0,0.0,0
0,664,0,,0,0,22.3036644034,114.177848721,0.0,0.0,0.0,0.0,0.0,0.0,0.0,0.0,0.0,0.0,0
0,665,0,,0,0,22.3036881534,114.177797328,0.0,0.0,0.0,0.0,0.0,0.0,0.0,0.0,0.0,0.0,0
0,666,0,,0,0,22.3036380098,114.177843746,0.0,0.0,0.0,0.0,0.0,0.0,0.0,0.0,0.0,0.0,0
0,667,0,,0,0,22.303626976,114.177822881,0.0,0.0,0.0,0.0,0.0,0.0,0.0,0.0,0.0,0.0,0
0,668,0,,0,0,22.3035953294,114.177810603,0.0,0.0,0.0,0.0,0.0,0.0,0.0,0.0,0.0,0.0,0
0,669,0,,0,0,22.3035722075,114.177795703,0.0,0.0,0.0,0.0,0.0,0.0,0.0,0.0,0.0,0.0,0
0,670,0,,0,0,22.3035991685,114.177828063,0.0,0.0,0.0,0.0,0.0,0.0,0.0,0.0,0.0,0.0,0
0,671,0,,0,0,22.3035819264,114.177790232,0.0,0.0,0.0,0.0,0.0,0.0,0.0,0.0,0.0,0.0,0
0,672,0,,0,0,22.3035667235,114.177802401,0.0,0.0,0.0,0.0,0.0,0.0,0.0,0.0,0.0,0.0,0
0,673,0,,0,0,22.3035662919,114.177801035,0.0,0.0,0.0,0.0,0.0,0.0,0.0,0.0,0.0,0.0,0
0,674,0,,0,0,22.3035698456,114.177794985,0.0,0.0,0.0,0.0,0.0,0.0,0.0,0.0,0.0,0.0,0
0,675,0,,0,0,22.3035621403,114.177774173,0.0,0.0,0.0,0.0,0.0,0.0,0.0,0.0,0.0,0.0,0
0,676,0,,0,0,22.3035657117,114.177781695,0.0,0.0,0.0,0.0,0.0,0.0,0.0,0.0,0.0,0.0,0
0,677,0,,0,0,22.303569391,114.177784782,0.0,0.0,0.0,0.0,0.0,0.0,0.0,0.0,0.0,0.0,0
0,678,0,,0,0,22.3035687944,114.177785328,0.0,0.0,0.0,0.0,0.0,0.0,0.0,0.0,0.0,0.0,0
0,679,0,,0,0,22.3035720934,114.177756673,0.0,0.0,0.0,0.0,0.0,0.0,0.0,0.0,0.0,0.0,0
0,680,0,,0,0,22.3035641746,114.1777033,0.0,0.0,0.0,0.0,0.0,0.0,0.0,0.0,0.0,0.0,0
0,681,0,,0,0,22.3035632128,114.17773346,0.0,0.0,0.0,0.0,0.0,0.0,0.0,0.0,0.0,0.0,0
0,682,0,,0,0,22.3035400428,114.177774653,0.0,0.0,0.0,0.0,0.0,0.0,0.0,0.0,0.0,0.0,0
0,683,0,,0,0,22.3035233333,114.177780863,0.0,0.0,0.0,0.0,0.0,0.0,0.0,0.0,0.0,0.0,0
0,684,0,,0,0,22.303496949,114.177725606,0.0,0.0,0.0,0.0,0.0,0.0,0.0,0.0,0.0,0.0,0
0,685,0,,0,0,22.3034618406,114.17774506,0.0,0.0,0.0,0.0,0.0,0.0,0.0,0.0,0.0,0.0,0
0,686,0,,0,0,22.3034640144,114.177717648,0.0,0.0,0.0,0.0,0.0,0.0,0.0,0.0,0.0,0.0,0
0,687,0,,0,0,22.303448061,114.177689668,0.0,0.0,0.0,0.0,0.0,0.0,0.0,0.0,0.0,0.0,0
0,688,0,,0,0,22.3035103552,114.177514511,0.0,0.0,0.0,0.0,0.0,0.0,0.0,0.0,0.0,0.0,0
0,689,0,,0,0,22.3035002612,114.177500736,0.0,0.0,0.0,0.0,0.0,0.0,0.0,0.0,0.0,0.0,0
0,690,0,,0,0,22.3033843755,114.177612007,0.0,0.0,0.0,0.0,0.0,0.0,0.0,0.0,0.0,0.0,0
0,691,0,,0,0,22.303379639,114.177550982,0.0,0.0,0.0,0.0,0.0,0.0,0.0,0.0,0.0,0.0,0
0,692,0,,0,0,22.303324943,114.177534033,0.0,0.0,0.0,0.0,0.0,0.0,0.0,0.0,0.0,0.0,0
0,693,0,,0,0,22.3032968606,114.177491211,0.0,0.0,0.0,0.0,0.0,0.0,0.0,0.0,0.0,0.0,0
0,694,0,,0,0,22.3032450215,114.177491996,0.0,0.0,0.0,0.0,0.0,0.0,0.0,0.0,0.0,0.0,0
0,695,0,,0,0,22.3031883374,114.177490967,0.0,0.0,0.0,0.0,0.0,0.0,0.0,0.0,0.0,0.0,0
0,696,0,,0,0,22.3031709253,114.177462596,0.0,0.0,0.0,0.0,0.0,0.0,0.0,0.0,0.0,0.0,0
0,697,0,,0,0,22.3031156903,114.177470712,0.0,0.0,0.0,0.0,0.0,0.0,0.0,0.0,0.0,0.0,0
0,698,0,,0,0,22.303027701,114.177453517,0.0,0.0,0.0,0.0,0.0,0.0,0.0,0.0,0.0,0.0,0
0,699,0,,0,0,22.3030017191,114.177450897,0.0,0.0,0.0,0.0,0.0,0.0,0.0,0.0,0.0,0.0,0
0,700,0,,0,0,22.3029643788,114.1774832,0.0,0.0,0.0,0.0,0.0,0.0,0.0,0.0,0.0,0.0,0
0,701,0,,0,0,22.3029348335,114.177508422,0.0,0.0,0.0,0.0,0.0,0.0,0.0,0.0,0.0,0.0,0
0,702,0,,0,0,22.3029144291,114.177510396,0.0,0.0,0.0,0.0,0.0,0.0,0.0,0.0,0.0,0.0,0
0,703,0,,0,0,22.3028907555,114.17755162,0.0,0.0,0.0,0.0,0.0,0.0,0.0,0.0,0.0,0.0,0
0,704,0,,0,0,22.3028587207,114.177604157,0.0,0.0,0.0,0.0,0.0,0.0,0.0,0.0,0.0,0.0,0
0,705,0,,0,0,22.3027989205,114.177693964,0.0,0.0,0.0,0.0,0.0,0.0,0.0,0.0,0.0,0.0,0
0,706,0,,0,0,22.3027826624,114.177763133,0.0,0.0,0.0,0.0,0.0,0.0,0.0,0.0,0.0,0.0,0
0,707,0,,0,0,22.3027610333,114.177783852,0.0,0.0,0.0,0.0,0.0,0.0,0.0,0.0,0.0,0.0,0
0,708,0,,0,0,22.3027441597,114.177860409,0.0,0.0,0.0,0.0,0.0,0.0,0.0,0.0,0.0,0.0,0
0,709,0,,0,0,22.3027204544,114.177932433,0.0,0.0,0.0,0.0,0.0,0.0,0.0,0.0,0.0,0.0,0
0,710,0,,0,0,22.302699228,114.177983369,0.0,0.0,0.0,0.0,0.0,0.0,0.0,0.0,0.0,0.0,0
0,711,0,,0,0,22.302670639,114.178043823,0.0,0.0,0.0,0.0,0.0,0.0,0.0,0.0,0.0,0.0,0
0,712,0,,0,0,22.3026398896,114.178118521,0.0,0.0,0.0,0.0,0.0,0.0,0.0,0.0,0.0,0.0,0
0,713,0,,0,0,22.302621163,114.178161972,0.0,0.0,0.0,0.0,0.0,0.0,0.0,0.0,0.0,0.0,0
0,714,0,,0,0,22.3025817827,114.17820499,0.0,0.0,0.0,0.0,0.0,0.0,0.0,0.0,0.0,0.0,0
0,715,0,,0,0,22.3025619982,114.178280195,0.0,0.0,0.0,0.0,0.0,0.0,0.0,0.0,0.0,0.0,0
0,716,0,,0,0,22.3024599719,114.178291279,0.0,0.0,0.0,0.0,0.0,0.0,0.0,0.0,0.0,0.0,0
0,717,0,,0,0,22.3024360752,114.17829432,0.0,0.0,0.0,0.0,0.0,0.0,0.0,0.0,0.0,0.0,0
0,718,0,,0,0,22.3023756266,114.17838212,0.0,0.0,0.0,0.0,0.0,0.0,0.0,0.0,0.0,0.0,0
0,719,0,,0,0,22.3023575602,114.17841061,0.0,0.0,0.0,0.0,0.0,0.0,0.0,0.0,0.0,0.0,0
0,720,0,,0,0,22.3023375846,114.178475613,0.0,0.0,0.0,0.0,0.0,0.0,0.0,0.0,0.0,0.0,0
0,721,0,,0,0,22.3023173644,114.178503702,0.0,0.0,0.0,0.0,0.0,0.0,0.0,0.0,0.0,0.0,0
