%time,field.header.seq,field.header.stamp,field.header.frame_id,field.status.status,field.status.service,field.latitude,field.longitude,field.altitude,field.position_covariance0,field.position_covariance1,field.position_covariance2,field.position_covariance3,field.position_covariance4,field.position_covariance5,field.position_covariance6,field.position_covariance7,field.position_covariance8,field.position_covariance_type
0,1,0,,0,0,22.3039276707,114.179227863,0.0,0.0,0.0,0.0,0.0,0.0,0.0,0.0,0.0,0.0,0
0,2,0,,0,0,22.3039545393,114.179220147,0.0,0.0,0.0,0.0,0.0,0.0,0.0,0.0,0.0,0.0,0
0,3,0,,0,0,22.303978426,114.179214073,0.0,0.0,0.0,0.0,0.0,0.0,0.0,0.0,0.0,0.0,0
0,4,0,,0,0,22.3039908087,114.179213979,0.0,0.0,0.0,0.0,0.0,0.0,0.0,0.0,0.0,0.0,0
0,5,0,,0,0,22.3039902811,114.179213397,0.0,0.0,0.0,0.0,0.0,0.0,0.0,0.0,0.0,0.0,0
0,6,0,,0,0,22.3039818807,114.179220848,0.0,0.0,0.0,0.0,0.0,0.0,0.0,0.0,0.0,0.0,0
0,7,0,,0,0,22.3039633567,114.179228656,0.0,0.0,0.0,0.0,0.0,0.0,0.0,0.0,0.0,0.0,0
0,8,0,,0,0,22.3039580902,114.179231936,0.0,0.0,0.0,0.0,0.0,0.0,0.0,0.0,0.0,0.0,0
0,9,0,,0,0,22.3039623242,114.179232544,0.0,0.0,0.0,0.0,0.0,0.0,0.0,0.0,0.0,0.0,0
0,10,0,,0,0,22.3039683357,114.179233822,0.0,0.0,0.0,0.0,0.0,0.0,0.0,0.0,0.0,0.0,0
0,11,0,,0,0,22.304012259,114.179237349,0.0,0.0,0.0,0.0,0.0,0.0,0.0,0.0,0.0,0.0,0
0,12,0,,0,0,22.3040395077,114.179237969,0.0,0.0,0.0,0.0,0.0,0.0,0.0,0.0,0.0,0.0,0
0,13,0,,0,0,22.3040208604,114.179236777,0.0,0.0,0.0,0.0,0.0,0.0,0.0,0.0,0.0,0.0,0
0,14,0,,0,0,22.3040127435,114.179237828,0.0,0.0,0.0,0.0,0.0,0.0,0.0,0.0,0.0,0.0,0
0,15,0,,0,0,22.3040042353,114.179262974,0.0,0.0,0.0,0.0,0.0,0.0,0.0,0.0,0.0,0.0,0
0,16,0,,0,0,22.3039756003,114.179373646,0.0,0.0,0.0,0.0,0.0,0.0,0.0,0.0,0.0,0.0,0
0,17,0,,0,0,22.3039691436,114.179367418,0.0,0.0,0.0,0.0,0.0,0.0,0.0,0.0,0.0,0.0,0
0,18,0,,0,0,22.3040446203,114.178934067,0.0,0.0,0.0,0.0,0.0,0.0,0.0,0.0,0.0,0.0,0
0,19,0,,0,0,22.3040337202,114.178933863,0.0,0.0,0.0,0.0,0.0,0.0,0.0,0.0,0.0,0.0,0
0,20,0,,0,0,22.304034341,114.178928232,0.0,0.0,0.0,0.0,0.0,0.0,0.0,0.0,0.0,0.0,0
0,21,0,,0,0,22.3040631457,114.178923988,0.0,0.0,0.0,0.0,0.0,0.0,0.0,0.0,0.0,0.0,0
0,22,0,,0,0,22.3040733805,114.178992326,0.0,0.0,0.0,0.0,0.0,0.0,0.0,0.0,0.0,0.0,0
0,23,0,,0,0,22.3040436948,114.179025969,0.0,0.0,0.0,0.0,0.0,0.0,0.0,0.0,0.0,0.0,0
0,24,0,,0,0,22.3040286549,114.179056991,0.0,0.0,0.0,0.0,0.0,0.0,0.0,0.0,0.0,0.0,0
0,25,0,,0,0,22.3040541286,114.179036673,0.0,0.0,0.0,0.0,0.0,0.0,0.0,0.0,0.0,0.0,0
0,26,0,,0,0,22.3039956102,114.178996883,0.0,0.0,0.0,0.0,0.0,0.0,0.0,0.0,0.0,0.0,0
0,27,0,,0,0,22.3039671741,114.178991592,0.0,0.0,0.0,0.0,0.0,0.0,0.0,0.0,0.0,0.0,0
0,28,0,,0,0,22.3039624788,114.178969832,0.0,0.0,0.0,0.0,0.0,0.0,0.0,0.0,0.0,0.0,0
0,29,0,,0,0,22.3040053187,114.178973165,0.0,0.0,0.0,0.0,0.0,0.0,0.0,0.0,0.0,0.0,0
0,30,0,,0,0,22.3040160918,114.178966314,0.0,0.0,0.0,0.0,0.0,0.0,0.0,0.0,0.0,0.0,0
0,31,0,,0,0,22.3040497366,114.178967803,0.0,0.0,0.0,0.0,0.0,0.0,0.0,0.0,0.0,0.0,0
0,32,0,,0,0,22.3040588381,114.178970172,0.0,0.0,0.0,0.0,0.0,0.0,0.0,0.0,0.0,0.0,0
0,33,0,,0,0,22.3040535842,114.178967715,0.0,0.0,0.0,0.0,0.0,0.0,0.0,0.0,0.0,0.0,0
0,34,0,,0,0,22.3040562399,114.178963224,0.0,0.0,0.0,0.0,0.0,0.0,0.0,0.0,0.0,0.0,0
0,35,0,,0,0,22.3040574403,114.178956579,0.0,0.0,0.0,0.0,0.0,0.0,0.0,0.0,0.0,0.0,0
0,36,0,,0,0,22.3040814877,114.178956913,0.0,0.0,0.0,0.0,0.0,0.0,0.0,0.0,0.0,0.0,0
0,37,0,,0,0,22.3039993424,114.178881839,0.0,0.0,0.0,0.0,0.0,0.0,0.0,0.0,0.0,0.0,0
0,38,0,,0,0,22.3040371064,114.178906043,0.0,0.0,0.0,0.0,0.0,0.0,0.0,0.0,0.0,0.0,0
0,39,0,,0,0,22.3040407778,114.178916986,0.0,0.0,0.0,0.0,0.0,0.0,0.0,0.0,0.0,0.0,0
0,40,0,,0,0,22.304129924,114.178950141,0.0,0.0,0.0,0.0,0.0,0.0,0.0,0.0,0.0,0.0,0
0,41,0,,0,0,22.3041201907,114.178888073,0.0,0.0,0.0,0.0,0.0,0.0,0.0,0.0,0.0,0.0,0
0,42,0,,0,0,22.3039393033,114.178868957,0.0,0.0,0.0,0.0,0.0,0.0,0.0,0.0,0.0,0.0,0
0,43,0,,0,0,22.304193757,114.178728425,0.0,0.0,0.0,0.0,0.0,0.0,0.0,0.0,0.0,0.0,0
0,44,0,,0,0,22.3042087995,114.178609083,0.0,0.0,0.0,0.0,0.0,0.0,0.0,0.0,0.0,0.0,0
0,45,0,,0,0,22.3043228618,114.178696719,0.0,0.0,0.0,0.0,0.0,0.0,0.0,0.0,0.0,0.0,0
0,46,0,,0,0,22.3042075118,114.178728934,0.0,0.0,0.0,0.0,0.0,0.0,0.0,0.0,0.0,0.0,0
0,47,0,,0,0,22.3042058737,114.178794487,0.0,0.0,0.0,0.0,0.0,0.0,0.0,0.0,0.0,0.0,0
0,48,0,,0,0,22.3041817181,114.178861986,0.0,0.0,0.0,0.0,0.0,0.0,0.0,0.0,0.0,0.0,0
0,49,0,,0,0,22.3041657749,114.178968581,0.0,0.0,0.0,0.0,0.0,0.0,0.0,0.0,0.0,0.0,0
0,50,0,,0,0,22.3042049888,114.178994669,0.0,0.0,0.0,0.0,0.0,0.0,0.0,0.0,0.0,0.0,0
0,51,0,,0,0,22.3041908889,114.178989469,0.0,0.0,0.0,0.0,0.0,0.0,0.0,0.0,0.0,0.0,0
0,52,0,,0,0,22.3041698081,114.179021245,0.0,0.0,0.0,0.0,0.0,0.0,0.0,0.0,0.0,0.0,0
0,53,0,,0,0,22.3041347956,114.179024472,0.0,0.0,0.0,0.0,0.0,0.0,0.0,0.0,0.0,0.0,0
0,54,0,,0,0,22.3041369051,114.179024685,0.0,0.0,0.0,0.0,0.0,0.0,0.0,0.0,0.0,0.0,0
0,55,0,,0,0,22.3040980855,114.179004837,0.0,0.0,0.0,0.0,0.0,0.0,0.0,0.0,0.0,0.0,0
0,56,0,,0,0,22.3041294403,114.17899851,0.0,0.0,0.0,0.0,0.0,0.0,0.0,0.0,0.0,0.0,0
0,57,0,,0,0,22.30411916,114.178990775,0.0,0.0,0.0,0.0,0.0,0.0,0.0,0.0,0.0,0.0,0
0,58,0,,0,0,22.3041374908,114.178983413,0.0,0.0,0.0,0.0,0.0,0.0,0.0,0.0,0.0,0.0,0
0,59,0,,0,0,22.3041288504,114.178975924,0.0,0.0,0.0,0.0,0.0,0.0,0.0,0.0,0.0,0.0,0
0,60,0,,0,0,22.3040674077,114.178966505,0.0,0.0,0.0,0.0,0.0,0.0,0.0,0.0,0.0,0.0,0
0,61,0,,0,0,22.3040647017,114.178968076,0.0,0.0,0.0,0.0,0.0,0.0,0.0,0.0,0.0,0.0,0
0,62,0,,0,0,22.3040592304,114.178970094,0.0,0.0,0.0,0.0,0.0,0.0,0.0,0.0,0.0,0.0,0
0,63,0,,0,0,22.3040854544,114.178992513,0.0,0.0,0.0,0.0,0.0,0.0,0.0,0.0,0.0,0.0,0
0,64,0,,0,0,22.3042852205,114.179078154,0.0,0.0,0.0,0.0,0.0,0.0,0.0,0.0,0.0,0.0,0
0,65,0,,0,0,22.3043154114,114.179138154,0.0,0.0,0.0,0.0,0.0,0.0,0.0,0.0,0.0,0.0,0
0,66,0,,0,0,22.3040098315,114.179129791,0.0,0.0,0.0,0.0,0.0,0.0,0.0,0.0,0.0,0.0,0
0,67,0,,0,0,22.3043206297,114.179357667,0.0,0.0,0.0,0.0,0.0,0.0,0.0,0.0,0.0,0.0,0
0,68,0,,0,0,22.3043391902,114.179476955,0.0,0.0,0.0,0.0,0.0,0.0,0.0,0.0,0.0,0.0,0
0,69,0,,0,0,22.3043764586,114.179568238,0.0,0.0,0.0,0.0,0.0,0.0,0.0,0.0,0.0,0.0,0
0,70,0,,0,0,22.3044334274,114.179627829,0.0,0.0,0.0,0.0,0.0,0.0,0.0,0.0,0.0,0.0,0
0,71,0,,0,0,22.3044929203,114.179617684,0.0,0.0,0.0,0.0,0.0,0.0,0.0,0.0,0.0,0.0,0
0,72,0,,0,0,22.3045483015,114.179578979,0.0,0.0,0.0,0.0,0.0,0.0,0.0,0.0,0.0,0.0,0
0,73,0,,0,0,22.3045829352,114.179519843,0.0,0.0,0.0,0.0,0.0,0.0,0.0,0.0,0.0,0.0,0
0,74,0,,0,0,22.304546386,114.179461487,0.0,0.0,0.0,0.0,0.0,0.0,0.0,0.0,0.0,0.0,0
0,75,0,,0,0,22.3043608254,114.179414632,0.0,0.0,0.0,0.0,0.0,0.0,0.0,0.0,0.0,0.0,0
0,76,0,,0,0,22.3041763278,114.17932701,0.0,0.0,0.0,0.0,0.0,0.0,0.0,0.0,0.0,0.0,0
0,77,0,,0,0,22.3040107946,114.179247708,0.0,0.0,0.0,0.0,0.0,0.0,0.0,0.0,0.0,0.0,0
0,78,0,,0,0,22.3038663688,114.179171419,0.0,0.0,0.0,0.0,0.0,0.0,0.0,0.0,0.0,0.0,0
0,79,0,,0,0,22.3037598466,114.17911297,0.0,0.0,0.0,0.0,0.0,0.0,0.0,0.0,0.0,0.0,0
0,80,0,,0,0,22.303760118,114.179088982,0.0,0.0,0.0,0.0,0.0,0.0,0.0,0.0,0.0,0.0,0
0,81,0,,0,0,22.3037755312,114.179082725,0.0,0.0,0.0,0.0,0.0,0.0,0.0,0.0,0.0,0.0,0
0,82,0,,0,0,22.3038015462,114.179104278,0.0,0.0,0.0,0.0,0.0,0.0,0.0,0.0,0.0,0.0,0
0,83,0,,0,0,22.3037770614,114.179104622,0.0,0.0,0.0,0.0,0.0,0.0,0.0,0.0,0.0,0.0,0
0,84,0,,0,0,22.3037749168,114.179115398,0.0,0.0,0.0,0.0,0.0,0.0,0.0,0.0,0.0,0.0,0
0,85,0,,0,0,22.3038102303,114.17914297,0.0,0.0,0.0,0.0,0.0,0.0,0.0,0.0,0.0,0.0,0
0,86,0,,0,0,22.3033595876,114.178907447,0.0,0.0,0.0,0.0,0.0,0.0,0.0,0.0,0.0,0.0,0
0,87,0,,0,0,22.3033702749,114.178930395,0.0,0.0,0.0,0.0,0.0,0.0,0.0,0.0,0.0,0.0,0
0,88,0,,0,0,22.3034841932,114.17899893,0.0,0.0,0.0,0.0,0.0,0.0,0.0,0.0,0.0,0.0,0
0,89,0,,0,0,22.3033967027,114.179011249,0.0,0.0,0.0,0.0,0.0,0.0,0.0,0.0,0.0,0.0,0
0,90,0,,0,0,22.303540912,114.179081651,0.0,0.0,0.0,0.0,0.0,0.0,0.0,0.0,0.0,0.0,0
0,91,0,,0,0,22.3035672349,114.17915165,0.0,0.0,0.0,0.0,0.0,0.0,0.0,0.0,0.0,0.0,0
0,92,0,,0,0,22.3034609979,114.179213233,0.0,0.0,0.0,0.0,0.0,0.0,0.0,0.0,0.0,0.0,0
0,93,0,,0,0,22.3035187444,114.179202024,0.0,0.0,0.0,0.0,0.0,0.0,0.0,0.0,0.0,0.0,0
0,94,0,,0,0,22.3034821466,114.179264791,0.0,0.0,0.0,0.0,0.0,0.0,0.0,0.0,0.0,0.0,0
0,95,0,,0,0,22.3036509482,114.179279163,0.0,0.0,0.0,0.0,0.0,0.0,0.0,0.0,0.0,0.0,0
0,96,0,,0,0,22.3035127547,114.17922294,0.0,0.0,0.0,0.0,0.0,0.0,0.0,0.0,0.0,0.0,0
0,97,0,,0,0,22.3035196052,114.179200075,0.0,0.0,0.0,0.0,0.0,0.0,0.0,0.0,0.0,0.0,0
0,98,0,,0,0,22.303539947,114.1791486,0.0,0.0,0.0,0.0,0.0,0.0,0.0,0.0,0.0,0.0,0
0,99,0,,0,0,22.3035692717,114.179093115,0.0,0.0,0.0,0.0,0.0,0.0,0.0,0.0,0.0,0.0,0
0,100,0,,0,0,22.3035787816,114.179097376,0.0,0.0,0.0,0.0,0.0,0.0,0.0,0.0,0.0,0.0,0
0,101,0,,0,0,22.3035929494,114.179098432,0.0,0.0,0.0,0.0,0.0,0.0,0.0,0.0,0.0,0.0,0
0,102,0,,0,0,22.3036067181,114.179095923,0.0,0.0,0.0,0.0,0.0,0.0,0.0,0.0,0.0,0.0,0
0,103,0,,0,0,22.3036178717,114.179086511,0.0,0.0,0.0,0.0,0.0,0.0,0.0,0.0,0.0,0.0,0
0,104,0,,0,0,22.3036269594,114.179070199,0.0,0.0,0.0,0.0,0.0,0.0,0.0,0.0,0.0,0.0,0
0,105,0,,0,0,22.3043424609,114.17874262,0.0,0.0,0.0,0.0,0.0,0.0,0.0,0.0,0.0,0.0,0
0,106,0,,0,0,22.3039246034,114.179007778,0.0,0.0,0.0,0.0,0.0,0.0,0.0,0.0,0.0,0.0,0
0,107,0,,0,0,22.3039204781,114.179018521,0.0,0.0,0.0,0.0,0.0,0.0,0.0,0.0,0.0,0.0,0
0,108,0,,0,0,22.3043445297,114.178753429,0.0,0.0,0.0,0.0,0.0,0.0,0.0,0.0,0.0,0.0,0
0,109,0,,0,0,22.3043345217,114.178761703,0.0,0.0,0.0,0.0,0.0,0.0,0.0,0.0,0.0,0.0,0
0,110,0,,0,0,22.3043259679,114.178765447,0.0,0.0,0.0,0.0,0.0,0.0,0.0,0.0,0.0,0.0,0
0,111,0,,0,0,22.3043179169,114.178768445,0.0,0.0,0.0,0.0,0.0,0.0,0.0,0.0,0.0,0.0,0
0,112,0,,0,0,22.3043206919,114.178772844,0.0,0.0,0.0,0.0,0.0,0.0,0.0,0.0,0.0,0.0,0
0,113,0,,0,0,22.3037966424,114.179071686,0.0,0.0,0.0,0.0,0.0,0.0,0.0,0.0,0.0,0.0,0
0,114,0,,0,0,22.303790804,114.179072957,0.0,0.0,0.0,0.0,0.0,0.0,0.0,0.0,0.0,0.0,0
0,115,0,,0,0,22.303788499,114.179066093,0.0,0.0,0.0,0.0,0.0,0.0,0.0,0.0,0.0,0.0,0
0,116,0,,0,0,22.3035810727,114.178983281,0.0,0.0,0.0,0.0,0.0,0.0,0.0,0.0,0.0,0.0,0
0,117,0,,0,0,22.3037748397,114.178774626,0.0,0.0,0.0,0.0,0.0,0.0,0.0,0.0,0.0,0.0,0
0,118,0,,0,0,22.3037966398,114.17872048,0.0,0.0,0.0,0.0,0.0,0.0,0.0,0.0,0.0,0.0,0
0,119,0,,0,0,22.3037997352,114.17870778,0.0,0.0,0.0,0.0,0.0,0.0,0.0,0.0,0.0,0.0,0
0,120,0,,0,0,22.3037317014,114.178865087,0.0,0.0,0.0,0.0,0.0,0.0,0.0,0.0,0.0,0.0,0
0,121,0,,0,0,22.303745768,114.178803455,0.0,0.0,0.0,0.0,0.0,0.0,0.0,0.0,0.0,0.0,0
0,122,0,,0,0,22.3037087108,114.178870483,0.0,0.0,0.0,0.0,0.0,0.0,0.0,0.0,0.0,0.0,0
0,123,0,,0,0,22.3036837293,114.178919288,0.0,0.0,0.0,0.0,0.0,0.0,0.0,0.0,0.0,0.0,0
0,124,0,,0,0,22.3036763124,114.178941051,0.0,0.0,0.0,0.0,0.0,0.0,0.0,0.0,0.0,0.0,0
0,125,0,,0,0,22.3036868676,114.178924312,0.0,0.0,0.0,0.0,0.0,0.0,0.0,0.0,0.0,0.0,0
0,126,0,,0,0,22.3036938232,114.178933496,0.0,0.0,0.0,0.0,0.0,0.0,0.0,0.0,0.0,0.0,0
0,127,0,,0,0,22.3036963825,114.178940878,0.0,0.0,0.0,0.0,0.0,0.0,0.0,0.0,0.0,0.0,0
0,128,0,,0,0,22.3036931019,114.178943121,0.0,0.0,0.0,0.0,0.0,0.0,0.0,0.0,0.0,0.0,0
0,129,0,,0,0,22.3037071079,114.178949835,0.0,0.0,0.0,0.0,0.0,0.0,0.0,0.0,0.0,0.0,0
0,130,0,,0,0,22.3037163188,114.178952756,0.0,0.0,0.0,0.0,0.0,0.0,0.0,0.0,0.0,0.0,0
0,131,0,,0,0,22.3037222714,114.178959005,0.0,0.0,0.0,0.0,0.0,0.0,0.0,0.0,0.0,0.0,0
0,132,0,,0,0,22.3037189359,114.178965947,0.0,0.0,0.0,0.0,0.0,0.0,0.0,0.0,0.0,0.0,0
0,133,0,,0,0,22.3037149734,114.178975347,0.0,0.0,0.0,0.0,0.0,0.0,0.0,0.0,0.0,0.0,0
0,134,0,,0,0,22.3037233451,114.178979935,0.0,0.0,0.0,0.0,0.0,0.0,0.0,0.0,0.0,0.0,0
0,135,0,,0,0,22.303732499,114.178975683,0.0,0.0,0.0,0.0,0.0,0.0,0.0,0.0,0.0,0.0,0
0,136,0,,0,0,22.3037443018,114.17897322,0.0,0.0,0.0,0.0,0.0,0.0,0.0,0.0,0.0,0.0,0
0,137,0,,0,0,22.3037552752,114.178971438,0.0,0.0,0.0,0.0,0.0,0.0,0.0,0.0,0.0,0.0,0
0,138,0,,0,0,22.303605042,114.178956244,0.0,0.0,0.0,0.0,0.0,0.0,0.0,0.0,0.0,0.0,0
0,139,0,,0,0,22.3036475661,114.178963917,0.0,0.0,0.0,0.0,0.0,0.0,0.0,0.0,0.0,0.0,0
0,140,0,,0,0,22.3037692766,114.178972608,0.0,0.0,0.0,0.0,0.0,0.0,0.0,0.0,0.0,0.0,0
0,141,0,,0,0,22.3047304541,114.179335306,0.0,0.0,0.0,0.0,0.0,0.0,0.0,0.0,0.0,0.0,0
0,142,0,,0,0,22.3047193334,114.179266803,0.0,0.0,0.0,0.0,0.0,0.0,0.0,0.0,0.0,0.0,0
0,143,0,,0,0,22.304678079,114.179111807,0.0,0.0,0.0,0.0,0.0,0.0,0.0,0.0,0.0,0.0,0
0,144,0,,0,0,22.3047037898,114.179145987,0.0,0.0,0.0,0.0,0.0,0.0,0.0,0.0,0.0,0.0,0
0,145,0,,0,0,22.3045914795,114.179150225,0.0,0.0,0.0,0.0,0.0,0.0,0.0,0.0,0.0,0.0,0
0,146,0,,0,0,22.3045492942,114.17918509,0.0,0.0,0.0,0.0,0.0,0.0,0.0,0.0,0.0,0.0,0
0,147,0,,0,0,22.3044381584,114.179150297,0.0,0.0,0.0,0.0,0.0,0.0,0.0,0.0,0.0,0.0,0
0,148,0,,0,0,22.3043587307,114.179255231,0.0,0.0,0.0,0.0,0.0,0.0,0.0,0.0,0.0,0.0,0
0,149,0,,0,0,22.3037919925,114.178915179,0.0,0.0,0.0,0.0,0.0,0.0,0.0,0.0,0.0,0.0,0
0,150,0,,0,0,22.3038017814,114.178928608,0.0,0.0,0.0,0.0,0.0,0.0,0.0,0.0,0.0,0.0,0
0,151,0,,0,0,22.3038084305,114.178936023,0.0,0.0,0.0,0.0,0.0,0.0,0.0,0.0,0.0,0.0,0
0,152,0,,0,0,22.303810094,114.178936881,0.0,0.0,0.0,0.0,0.0,0.0,0.0,0.0,0.0,0.0,0
0,153,0,,0,0,22.303810927,114.178941028,0.0,0.0,0.0,0.0,0.0,0.0,0.0,0.0,0.0,0.0,0
0,154,0,,0,0,22.3043024599,114.179129371,0.0,0.0,0.0,0.0,0.0,0.0,0.0,0.0,0.0,0.0,0
0,155,0,,0,0,22.3042476652,114.179108328,0.0,0.0,0.0,0.0,0.0,0.0,0.0,0.0,0.0,0.0,0
0,156,0,,0,0,22.3038211622,114.178941927,0.0,0.0,0.0,0.0,0.0,0.0,0.0,0.0,0.0,0.0,0
0,157,0,,0,0,22.3038243072,114.178943459,0.0,0.0,0.0,0.0,0.0,0.0,0.0,0.0,0.0,0.0,0
0,158,0,,0,0,22.3038144129,114.178944142,0.0,0.0,0.0,0.0,0.0,0.0,0.0,0.0,0.0,0.0,0
0,159,0,,0,0,22.3038356147,114.178950738,0.0,0.0,0.0,0.0,0.0,0.0,0.0,0.0,0.0,0.0,0
0,160,0,,0,0,22.3038376261,114.178955707,0.0,0.0,0.0,0.0,0.0,0.0,0.0,0.0,0.0,0.0,0
0,161,0,,0,0,22.3038402301,114.178952755,0.0,0.0,0.0,0.0,0.0,0.0,0.0,0.0,0.0,0.0,0
0,162,0,,0,0,22.3038472657,114.178949683,0.0,0.0,0.0,0.0,0.0,0.0,0.0,0.0,0.0,0.0,0
0,163,0,,0,0,22.3038447238,114.178945829,0.0,0.0,0.0,0.0,0.0,0.0,0.0,0.0,0.0,0.0,0
0,164,0,,0,0,22.3041246141,114.17909346,0.0,0.0,0.0,0.0,0.0,0.0,0.0,0.0,0.0,0.0,0
0,165,0,,0,0,22.3041283211,114.179074733,0.0,0.0,0.0,0.0,0.0,0.0,0.0,0.0,0.0,0.0,0
0,166,0,,0,0,22.3041471182,114.179053825,0.0,0.0,0.0,0.0,0.0,0.0,0.0,0.0,0.0,0.0,0
0,167,0,,0,0,22.3042055023,114.178965706,0.0,0.0,0.0,0.0,0.0,0.0,0.0,0.0,0.0,0.0,0
0,168,0,,0,0,22.3039740624,114.178727695,0.0,0.0,0.0,0.0,0.0,0.0,0.0,0.0,0.0,0.0,0
0,169,0,,0,0,22.3040017078,114.178694917,0.0,0.0,0.0,0.0,0.0,0.0,0.0,0.0,0.0,0.0,0
0,170,0,,0,0,22.3043449439,114.178899465,0.0,0.0,0.0,0.0,0.0,0.0,0.0,0.0,0.0,0.0,0
0,171,0,,0,0,22.304316639,114.179022476,0.0,0.0,0.0,0.0,0.0,0.0,0.0,0.0,0.0,0.0,0
0,172,0,,0,0,22.3043329605,114.179067101,0.0,0.0,0.0,0.0,0.0,0.0,0.0,0.0,0.0,0.0,0
0,173,0,,0,0,22.3044267435,114.179050535,0.0,0.0,0.0,0.0,0.0,0.0,0.0,0.0,0.0,0.0,0
0,174,0,,0,0,22.3044378508,114.179034422,0.0,0.0,0.0,0.0,0.0,0.0,0.0,0.0,0.0,0.0,0
0,175,0,,0,0,22.3044760155,114.179038715,0.0,0.0,0.0,0.0,0.0,0.0,0.0,0.0,0.0,0.0,0
0,176,0,,0,0,22.3043762864,114.179089707,0.0,0.0,0.0,0.0,0.0,0.0,0.0,0.0,0.0,0.0,0
0,177,0,,0,0,22.3043876563,114.179157796,0.0,0.0,0.0,0.0,0.0,0.0,0.0,0.0,0.0,0.0,0
0,178,0,,0,0,22.3044154709,114.179159234,0.0,0.0,0.0,0.0,0.0,0.0,0.0,0.0,0.0,0.0,0
0,179,0,,0,0,22.3044576977,114.179175066,0.0,0.0,0.0,0.0,0.0,0.0,0.0,0.0,0.0,0.0,0
0,180,0,,0,0,22.3045023521,114.179202727,0.0,0.0,0.0,0.0,0.0,0.0,0.0,0.0,0.0,0.0,0
0,181,0,,0,0,22.3044840973,114.179202436,0.0,0.0,0.0,0.0,0.0,0.0,0.0,0.0,0.0,0.0,0
0,182,0,,0,0,22.304518845,114.179142555,0.0,0.0,0.0,0.0,0.0,0.0,0.0,0.0,0.0,0.0,0
0,183,0,,0,0,22.3045078506,114.179147497,0.0,0.0,0.0,0.0,0.0,0.0,0.0,0.0,0.0,0.0,0
0,184,0,,0,0,22.3045006775,114.179154705,0.0,0.0,0.0,0.0,0.0,0.0,0.0,0.0,0.0,0.0,0
0,185,0,,0,0,22.3045051499,114.179158163,0.0,0.0,0.0,0.0,0.0,0.0,0.0,0.0,0.0,0.0,0
0,186,0,,0,0,22.3044762036,114.179146924,0.0,0.0,0.0,0.0,0.0,0.0,0.0,0.0,0.0,0.0,0
0,187,0,,0,0,22.3044535351,114.17913273,0.0,0.0,0.0,0.0,0.0,0.0,0.0,0.0,0.0,0.0,0
0,188,0,,0,0,22.3044468803,114.179125936,0.0,0.0,0.0,0.0,0.0,0.0,0.0,0.0,0.0,0.0,0
0,189,0,,0,0,22.3044484771,114.179118373,0.0,0.0,0.0,0.0,0.0,0.0,0.0,0.0,0.0,0.0,0
0,190,0,,0,0,22.304457519,114.179108037,0.0,0.0,0.0,0.0,0.0,0.0,0.0,0.0,0.0,0.0,0
0,191,0,,0,0,22.3044577506,114.17909542,0.0,0.0,0.0,0.0,0.0,0.0,0.0,0.0,0.0,0.0,0
0,192,0,,0,0,22.3044298043,114.179081392,0.0,0.0,0.0,0.0,0.0,0.0,0.0,0.0,0.0,0.0,0
0,193,0,,0,0,22.3043674068,114.179061244,0.0,0.0,0.0,0.0,0.0,0.0,0.0,0.0,0.0,0.0,0
0,194,0,,0,0,22.3043053647,114.179042275,0.0,0.0,0.0,0.0,0.0,0.0,0.0,0.0,0.0,0.0,0
0,195,0,,0,0,22.3042391144,114.179020346,0.0,0.0,0.0,0.0,0.0,0.0,0.0,0.0,0.0,0.0,0
0,196,0,,0,0,22.3042014919,114.179006537,0.0,0.0,0.0,0.0,0.0,0.0,0.0,0.0,0.0,0.0,0
0,197,0,,0,0,22.3042020575,114.179007698,0.0,0.0,0.0,0.0,0.0,0.0,0.0,0.0,0.0,0.0,0
0,198,0,,0,0,22.3041825354,114.179074806,0.0,0.0,0.0,0.0,0.0,0.0,0.0,0.0,0.0,0.0,0
0,199,0,,0,0,22.3041859859,114.179075109,0.0,0.0,0.0,0.0,0.0,0.0,0.0,0.0,0.0,0.0,0
0,200,0,,0,0,22.3042046927,114.179067379,0.0,0.0,0.0,0.0,0.0,0.0,0.0,0.0,0.0,0.0,0
0,201,0,,0,0,22.3042106695,114.179062278,0.0,0.0,0.0,0.0,0.0,0.0,0.0,0.0,0.0,0.0,0
0,202,0,,0,0,22.3042330102,114.179058556,0.0,0.0,0.0,0.0,0.0,0.0,0.0,0.0,0.0,0.0,0
0,203,0,,0,0,22.304249959,114.179074551,0.0,0.0,0.0,0.0,0.0,0.0,0.0,0.0,0.0,0.0,0
0,204,0,,0,0,22.3042644395,114.179088759,0.0,0.0,0.0,0.0,0.0,0.0,0.0,0.0,0.0,0.0,0
0,205,0,,0,0,22.3042831941,114.179118239,0.0,0.0,0.0,0.0,0.0,0.0,0.0,0.0,0.0,0.0,0
0,206,0,,0,0,22.3042721523,114.179124376,0.0,0.0,0.0,0.0,0.0,0.0,0.0,0.0,0.0,0.0,0
0,207,0,,0,0,22.3042775197,114.179124257,0.0,0.0,0.0,0.0,0.0,0.0,0.0,0.0,0.0,0.0,0
0,208,0,,0,0,22.3042614593,114.179130432,0.0,0.0,0.0,0.0,0.0,0.0,0.0,0.0,0.0,0.0,0
0,209,0,,0,0,22.3042459501,114.179133815,0.0,0.0,0.0,0.0,0.0,0.0,0.0,0.0,0.0,0.0,0
0,210,0,,0,0,22.3042467509,114.179123863,0.0,0.0,0.0,0.0,0.0,0.0,0.0,0.0,0.0,0.0,0
0,211,0,,0,0,22.3042209154,114.179112918,0.0,0.0,0.0,0.0,0.0,0.0,0.0,0.0,0.0,0.0,0
0,212,0,,0,0,22.3041909499,114.179088365,0.0,0.0,0.0,0.0,0.0,0.0,0.0,0.0,0.0,0.0,0
0,213,0,,0,0,22.3041782028,114.179054016,0.0,0.0,0.0,0.0,0.0,0.0,0.0,0.0,0.0,0.0,0
0,214,0,,0,0,22.3041753515,114.179037952,0.0,0.0,0.0,0.0,0.0,0.0,0.0,0.0,0.0,0.0,0
0,215,0,,0,0,22.3041736067,114.179025462,0.0,0.0,0.0,0.0,0.0,0.0,0.0,0.0,0.0,0.0,0
0,216,0,,0,0,22.3041481387,114.179009223,0.0,0.0,0.0,0.0,0.0,0.0,0.0,0.0,0.0,0.0,0
0,217,0,,0,0,22.3041361143,114.179008535,0.0,0.0,0.0,0.0,0.0,0.0,0.0,0.0,0.0,0.0,0
0,218,0,,0,0,22.3041326492,114.179001334,0.0,0.0,0.0,0.0,0.0,0.0,0.0,0.0,0.0,0.0,0
0,219,0,,0,0,22.3039088002,114.178886194,0.0,0.0,0.0,0.0,0.0,0.0,0.0,0.0,0.0,0.0,0
0,220,0,,0,0,22.3039189532,114.178887402,0.0,0.0,0.0,0.0,0.0,0.0,0.0,0.0,0.0,0.0,0
0,221,0,,0,0,22.3039142031,114.178890112,0.0,0.0,0.0,0.0,0.0,0.0,0.0,0.0,0.0,0.0,0
0,222,0,,0,0,22.303892365,114.178890656,0.0,0.0,0.0,0.0,0.0,0.0,0.0,0.0,0.0,0.0,0
0,223,0,,0,0,22.3038936316,114.178890493,0.0,0.0,0.0,0.0,0.0,0.0,0.0,0.0,0.0,0.0,0
0,224,0,,0,0,22.3038797771,114.178888447,0.0,0.0,0.0,0.0,0.0,0.0,0.0,0.0,0.0,0.0,0
0,225,0,,0,0,22.3039209516,114.178886824,0.0,0.0,0.0,0.0,0.0,0.0,0.0,0.0,0.0,0.0,0
0,226,0,,0,0,22.30396148,114.178889638,0.0,0.0,0.0,0.0,0.0,0.0,0.0,0.0,0.0,0.0,0
0,227,0,,0,0,22.3039815692,114.178891669,0.0,0.0,0.0,0.0,0.0,0.0,0.0,0.0,0.0,0.0,0
0,228,0,,0,0,22.3039579416,114.178892971,0.0,0.0,0.0,0.0,0.0,0.0,0.0,0.0,0.0,0.0,0
0,229,0,,0,0,22.3039495764,114.178897012,0.0,0.0,0.0,0.0,0.0,0.0,0.0,0.0,0.0,0.0,0
0,230,0,,0,0,22.3039433628,114.178900397,0.0,0.0,0.0,0.0,0.0,0.0,0.0,0.0,0.0,0.0,0
0,231,0,,0,0,22.3039394946,114.178907644,0.0,0.0,0.0,0.0,0.0,0.0,0.0,0.0,0.0,0.0,0
0,232,0,,0,0,22.3039605209,114.178905909,0.0,0.0,0.0,0.0,0.0,0.0,0.0,0.0,0.0,0.0,0
0,233,0,,0,0,22.303957254,114.178914125,0.0,0.0,0.0,0.0,0.0,0.0,0.0,0.0,0.0,0.0,0
0,234,0,,0,0,22.3039700537,114.178912337,0.0,0.0,0.0,0.0,0.0,0.0,0.0,0.0,0.0,0.0,0
0,235,0,,0,0,22.3047246727,114.179059639,0.0,0.0,0.0,0.0,0.0,0.0,0.0,0.0,0.0,0.0,0
0,236,0,,0,0,22.3046235531,114.179047293,0.0,0.0,0.0,0.0,0.0,0.0,0.0,0.0,0.0,0.0,0
0,237,0,,0,0,22.3039959256,114.17892078,0.0,0.0,0.0,0.0,0.0,0.0,0.0,0.0,0.0,0.0,0
0,238,0,,0,0,22.3039971902,114.178922088,0.0,0.0,0.0,0.0,0.0,0.0,0.0,0.0,0.0,0.0,0
0,239,0,,0,0,22.3040040153,114.178920821,0.0,0.0,0.0,0.0,0.0,0.0,0.0,0.0,0.0,0.0,0
0,240,0,,0,0,22.3040074537,114.178919393,0.0,0.0,0.0,0.0,0.0,0.0,0.0,0.0,0.0,0.0,0
0,241,0,,0,0,22.3040067892,114.178919398,0.0,0.0,0.0,0.0,0.0,0.0,0.0,0.0,0.0,0.0,0
0,242,0,,0,0,22.3040185676,114.178914569,0.0,0.0,0.0,0.0,0.0,0.0,0.0,0.0,0.0,0.0,0
0,243,0,,0,0,22.3040260892,114.178910182,0.0,0.0,0.0,0.0,0.0,0.0,0.0,0.0,0.0,0.0,0
0,244,0,,0,0,22.3046101366,114.17903882,0.0,0.0,0.0,0.0,0.0,0.0,0.0,0.0,0.0,0.0,0
0,245,0,,0,0,22.3045804612,114.17902846,0.0,0.0,0.0,0.0,0.0,0.0,0.0,0.0,0.0,0.0,0
0,246,0,,0,0,22.304569966,114.179015967,0.0,0.0,0.0,0.0,0.0,0.0,0.0,0.0,0.0,0.0,0
0,247,0,,0,0,22.3045306602,114.179011921,0.0,0.0,0.0,0.0,0.0,0.0,0.0,0.0,0.0,0.0,0
0,248,0,,0,0,22.3044844438,114.179012129,0.0,0.0,0.0,0.0,0.0,0.0,0.0,0.0,0.0,0.0,0
0,249,0,,0,0,22.3041549663,114.17916456,0.0,0.0,0.0,0.0,0.0,0.0,0.0,0.0,0.0,0.0,0
0,250,0,,0,0,22.3041528664,114.179158973,0.0,0.0,0.0,0.0,0.0,0.0,0.0,0.0,0.0,0.0,0
0,251,0,,0,0,22.3041683577,114.179164677,0.0,0.0,0.0,0.0,0.0,0.0,0.0,0.0,0.0,0.0,0
0,252,0,,0,0,22.3041707839,114.17917366,0.0,0.0,0.0,0.0,0.0,0.0,0.0,0.0,0.0,0.0,0
0,253,0,,0,0,22.3041737026,114.179175451,0.0,0.0,0.0,0.0,0.0,0.0,0.0,0.0,0.0,0.0,0
0,254,0,,0,0,22.3041808332,114.179177305,0.0,0.0,0.0,0.0,0.0,0.0,0.0,0.0,0.0,0.0,0
0,255,0,,0,0,22.3041956769,114.179174607,0.0,0.0,0.0,0.0,0.0,0.0,0.0,0.0,0.0,0.0,0
0,256,0,,0,0,22.3042237651,114.179177913,0.0,0.0,0.0,0.0,0.0,0.0,0.0,0.0,0.0,0.0,0
0,257,0,,0,0,22.3042263231,114.179181495,0.0,0.0,0.0,0.0,0.0,0.0,0.0,0.0,0.0,0.0,0
0,258,0,,0,0,22.3042159226,114.179181676,0.0,0.0,0.0,0.0,0.0,0.0,0.0,0.0,0.0,0.0,0
0,259,0,,0,0,22.3041948369,114.179166497,0.0,0.0,0.0,0.0,0.0,0.0,0.0,0.0,0.0,0.0,0
0,260,0,,0,0,22.3041663238,114.179145726,0.0,0.0,0.0,0.0,0.0,0.0,0.0,0.0,0.0,0.0,0
0,261,0,,0,0,22.3041315652,114.179130436,0.0,0.0,0.0,0.0,0.0,0.0,0.0,0.0,0.0,0.0,0
0,262,0,,0,0,22.30410849,114.179129715,0.0,0.0,0.0,0.0,0.0,0.0,0.0,0.0,0.0,0.0,0
0,263,0,,0,0,22.3041057967,114.179129311,0.0,0.0,0.0,0.0,0.0,0.0,0.0,0.0,0.0,0.0,0
0,264,0,,0,0,22.3041237908,114.179127942,0.0,0.0,0.0,0.0,0.0,0.0,0.0,0.0,0.0,0.0,0
0,265,0,,0,0,22.3041452517,114.179137194,0.0,0.0,0.0,0.0,0.0,0.0,0.0,0.0,0.0,0.0,0
0,266,0,,0,0,22.3041678591,114.179145593,0.0,0.0,0.0,0.0,0.0,0.0,0.0,0.0,0.0,0.0,0
0,267,0,,0,0,22.3041998321,114.179161997,0.0,0.0,0.0,0.0,0.0,0.0,0.0,0.0,0.0,0.0,0
0,268,0,,0,0,22.3042545854,114.179192867,0.0,0.0,0.0,0.0,0.0,0.0,0.0,0.0,0.0,0.0,0
0,269,0,,0,0,22.3043083124,114.179218842,0.0,0.0,0.0,0.0,0.0,0.0,0.0,0.0,0.0,0.0,0
0,270,0,,0,0,22.3043416003,114.179239655,0.0,0.0,0.0,0.0,0.0,0.0,0.0,0.0,0.0,0.0,0
0,271,0,,0,0,22.3043632811,114.179250682,0.0,0.0,0.0,0.0,0.0,0.0,0.0,0.0,0.0,0.0,0
0,272,0,,0,0,22.3043808026,114.179262843,0.0,0.0,0.0,0.0,0.0,0.0,0.0,0.0,0.0,0.0,0
0,273,0,,0,0,22.3043786511,114.179267864,0.0,0.0,0.0,0.0,0.0,0.0,0.0,0.0,0.0,0.0,0
0,274,0,,0,0,22.3043760262,114.179271112,0.0,0.0,0.0,0.0,0.0,0.0,0.0,0.0,0.0,0.0,0
0,275,0,,0,0,22.3037798002,114.178929028,0.0,0.0,0.0,0.0,0.0,0.0,0.0,0.0,0.0,0.0,0
0,276,0,,0,0,22.3037560036,114.178927716,0.0,0.0,0.0,0.0,0.0,0.0,0.0,0.0,0.0,0.0,0
0,277,0,,0,0,22.3037516646,114.178927273,0.0,0.0,0.0,0.0,0.0,0.0,0.0,0.0,0.0,0.0,0
0,278,0,,0,0,22.3037495492,114.178932253,0.0,0.0,0.0,0.0,0.0,0.0,0.0,0.0,0.0,0.0,0
0,279,0,,0,0,22.3037519509,114.178931016,0.0,0.0,0.0,0.0,0.0,0.0,0.0,0.0,0.0,0.0,0
0,280,0,,0,0,22.3037511116,114.178932385,0.0,0.0,0.0,0.0,0.0,0.0,0.0,0.0,0.0,0.0,0
0,281,0,,0,0,22.3037415315,114.178936279,0.0,0.0,0.0,0.0,0.0,0.0,0.0,0.0,0.0,0.0,0
0,282,0,,0,0,22.3037379822,114.178936652,0.0,0.0,0.0,0.0,0.0,0.0,0.0,0.0,0.0,0.0,0
0,283,0,,0,0,22.3037273093,114.178942369,0.0,0.0,0.0,0.0,0.0,0.0,0.0,0.0,0.0,0.0,0
0,284,0,,0,0,22.3037217752,114.178947238,0.0,0.0,0.0,0.0,0.0,0.0,0.0,0.0,0.0,0.0,0
0,285,0,,0,0,22.3042559061,114.179256759,0.0,0.0,0.0,0.0,0.0,0.0,0.0,0.0,0.0,0.0,0
0,286,0,,0,0,22.3037375734,114.178953383,0.0,0.0,0.0,0.0,0.0,0.0,0.0,0.0,0.0,0.0,0
0,287,0,,0,0,22.3037351458,114.178955999,0.0,0.0,0.0,0.0,0.0,0.0,0.0,0.0,0.0,0.0,0
0,288,0,,0,0,22.3037221101,114.178959023,0.0,0.0,0.0,0.0,0.0,0.0,0.0,0.0,0.0,0.0,0
0,289,0,,0,0,22.3037203654,114.178957165,0.0,0.0,0.0,0.0,0.0,0.0,0.0,0.0,0.0,0.0,0
0,290,0,,0,0,22.3037304506,114.178962656,0.0,0.0,0.0,0.0,0.0,0.0,0.0,0.0,0.0,0.0,0
0,291,0,,0,0,22.3037372248,114.178954247,0.0,0.0,0.0,0.0,0.0,0.0,0.0,0.0,0.0,0.0,0
0,292,0,,0,0,22.3037668078,114.178885242,0.0,0.0,0.0,0.0,0.0,0.0,0.0,0.0,0.0,0.0,0
0,293,0,,0,0,22.3038111892,114.178844155,0.0,0.0,0.0,0.0,0.0,0.0,0.0,0.0,0.0,0.0,0
0,294,0,,0,0,22.3038220278,114.178880055,0.0,0.0,0.0,0.0,0.0,0.0,0.0,0.0,0.0,0.0,0
0,295,0,,0,0,22.3038204688,114.178964551,0.0,0.0,0.0,0.0,0.0,0.0,0.0,0.0,0.0,0.0,0
0,296,0,,0,0,22.3038293971,114.179001935,0.0,0.0,0.0,0.0,0.0,0.0,0.0,0.0,0.0,0.0,0
0,297,0,,0,0,22.3038402972,114.17904591,0.0,0.0,0.0,0.0,0.0,0.0,0.0,0.0,0.0,0.0,0
0,298,0,,0,0,22.3038694378,114.179057117,0.0,0.0,0.0,0.0,0.0,0.0,0.0,0.0,0.0,0.0,0
0,299,0,,0,0,22.3040806599,114.179023181,0.0,0.0,0.0,0.0,0.0,0.0,0.0,0.0,0.0,0.0,0
0,300,0,,0,0,22.3041062484,114.179022988,0.0,0.0,0.0,0.0,0.0,0.0,0.0,0.0,0.0,0.0,0
0,301,0,,0,0,22.3041301791,114.17903418,0.0,0.0,0.0,0.0,0.0,0.0,0.0,0.0,0.0,0.0,0
0,302,0,,0,0,22.3041408154,114.179040638,0.0,0.0,0.0,0.0,0.0,0.0,0.0,0.0,0.0,0.0,0
0,303,0,,0,0,22.304149729,114.179045026,0.0,0.0,0.0,0.0,0.0,0.0,0.0,0.0,0.0,0.0,0
0,304,0,,0,0,22.3041556345,114.179053862,0.0,0.0,0.0,0.0,0.0,0.0,0.0,0.0,0.0,0.0,0
0,305,0,,0,0,22.3041521187,114.179059864,0.0,0.0,0.0,0.0,0.0,0.0,0.0,0.0,0.0,0.0,0
0,306,0,,0,0,22.3041553809,114.179066445,0.0,0.0,0.0,0.0,0.0,0.0,0.0,0.0,0.0,0.0,0
0,307,0,,0,0,22.3041594772,114.179065448,0.0,0.0,0.0,0.0,0.0,0.0,0.0,0.0,0.0,0.0,0
0,308,0,,0,0,22.3041756067,114.179063768,0.0,0.0,0.0,0.0,0.0,0.0,0.0,0.0,0.0,0.0,0
0,309,0,,0,0,22.3041848793,114.179066231,0.0,0.0,0.0,0.0,0.0,0.0,0.0,0.0,0.0,0.0,0
0,310,0,,0,0,22.3041912134,114.179069636,0.0,0.0,0.0,0.0,0.0,0.0,0.0,0.0,0.0,0.0,0
0,311,0,,0,0,22.3041961028,114.179079961,0.0,0.0,0.0,0.0,0.0,0.0,0.0,0.0,0.0,0.0,0
0,312,0,,0,0,22.3042103988,114.179121519,0.0,0.0,0.0,0.0,0.0,0.0,0.0,0.0,0.0,0.0,0
0,313,0,,0,0,22.3042732837,114.179247885,0.0,0.0,0.0,0.0,0.0,0.0,0.0,0.0,0.0,0.0,0
0,314,0,,0,0,22.3043309439,114.179356204,0.0,0.0,0.0,0.0,0.0,0.0,0.0,0.0,0.0,0.0,0
0,315,0,,0,0,22.3037785644,114.179395308,0.0,0.0,0.0,0.0,0.0,0.0,0.0,0.0,0.0,0.0,0
0,316,0,,0,0,22.3037899309,114.179343377,0.0,0.0,0.0,0.0,0.0,0.0,0.0,0.0,0.0,0.0,0
0,317,0,,0,0,22.3037677565,114.179280005,0.0,0.0,0.0,0.0,0.0,0.0,0.0,0.0,0.0,0.0,0
0,318,0,,0,0,22.3037736858,114.179259021,0.0,0.0,0.0,0.0,0.0,0.0,0.0,0.0,0.0,0.0,0
0,319,0,,0,0,22.3037671912,114.179208913,0.0,0.0,0.0,0.0,0.0,0.0,0.0,0.0,0.0,0.0,0
0,320,0,,0,0,22.3038417968,114.179236739,0.0,0.0,0.0,0.0,0.0,0.0,0.0,0.0,0.0,0.0,0
0,321,0,,0,0,22.303832609,114.179223312,0.0,0.0,0.0,0.0,0.0,0.0,0.0,0.0,0.0,0.0,0
0,322,0,,0,0,22.303829844,114.179214304,0.0,0.0,0.0,0.0,0.0,0.0,0.0,0.0,0.0,0.0,0
0,323,0,,0,0,22.3038080228,114.179199063,0.0,0.0,0.0,0.0,0.0,0.0,0.0,0.0,0.0,0.0,0
0,324,0,,0,0,22.3038048006,114.179193855,0.0,0.0,0.0,0.0,0.0,0.0,0.0,0.0,0.0,0.0,0
0,325,0,,0,0,22.3038154986,114.17920261,0.0,0.0,0.0,0.0,0.0,0.0,0.0,0.0,0.0,0.0,0
0,326,0,,0,0,22.3038178855,114.179208028,0.0,0.0,0.0,0.0,0.0,0.0,0.0,0.0,0.0,0.0,0
0,327,0,,0,0,22.3038256861,114.17922047,0.0,0.0,0.0,0.0,0.0,0.0,0.0,0.0,0.0,0.0,0
0,328,0,,0,0,22.3038127773,114.179221395,0.0,0.0,0.0,0.0,0.0,0.0,0.0,0.0,0.0,0.0,0
0,329,0,,0,0,22.3037833073,114.179210941,0.0,0.0,0.0,0.0,0.0,0.0,0.0,0.0,0.0,0.0,0
0,330,0,,0,0,22.3037774325,114.179215272,0.0,0.0,0.0,0.0,0.0,0.0,0.0,0.0,0.0,0.0,0
0,331,0,,0,0,22.3037712833,114.179216431,0.0,0.0,0.0,0.0,0.0,0.0,0.0,0.0,0.0,0.0,0
0,332,0,,0,0,22.3037655241,114.179224233,0.0,0.0,0.0,0.0,0.0,0.0,0.0,0.0,0.0,0.0,0
0,333,0,,0,0,22.3042330463,114.179147519,0.0,0.0,0.0,0.0,0.0,0.0,0.0,0.0,0.0,0.0,0
0,334,0,,0,0,22.3051522215,114.178904414,0.0,0.0,0.0,0.0,0.0,0.0,0.0,0.0,0.0,0.0,0
0,335,0,,0,0,22.3052178931,114.178903021,0.0,0.0,0.0,0.0,0.0,0.0,0.0,0.0,0.0,0.0,0
0,336,0,,0,0,22.3042580516,114.179245616,0.0,0.0,0.0,0.0,0.0,0.0,0.0,0.0,0.0,0.0,0
0,337,0,,0,0,22.3036631136,114.179372729,0.0,0.0,0.0,0.0,0.0,0.0,0.0,0.0,0.0,0.0,0
0,338,0,,0,0,22.3041830424,114.179510124,0.0,0.0,0.0,0.0,0.0,0.0,0.0,0.0,0.0,0.0,0
0,339,0,,0,0,22.3054223966,114.179197458,0.0,0.0,0.0,0.0,0.0,0.0,0.0,0.0,0.0,0.0,0
0,340,0,,0,0,22.3053782474,114.179171353,0.0,0.0,0.0,0.0,0.0,0.0,0.0,0.0,0.0,0.0,0
0,341,0,,0,0,22.3052892804,114.179129355,0.0,0.0,0.0,0.0,0.0,0.0,0.0,0.0,0.0,0.0,0
0,342,0,,0,0,22.3051975932,114.179084322,0.0,0.0,0.0,0.0,0.0,0.0,0.0,0.0,0.0,0.0,0
0,343,0,,0,0,22.3042918655,114.179232423,0.0,0.0,0.0,0.0,0.0,0.0,0.0,0.0,0.0,0.0,0
0,344,0,,0,0,22.3041974971,114.179207375,0.0,0.0,0.0,0.0,0.0,0.0,0.0,0.0,0.0,0.0,0
0,345,0,,0,0,22.305012634,114.178932645,0.0,0.0,0.0,0.0,0.0,0.0,0.0,0.0,0.0,0.0,0
0,346,0,,0,0,22.3041735774,114.179225815,0.0,0.0,0.0,0.0,0.0,0.0,0.0,0.0,0.0,0.0,0
0,347,0,,0,0,22.3041446564,114.179236916,0.0,0.0,0.0,0.0,0.0,0.0,0.0,0.0,0.0,0.0,0
0,348,0,,0,0,22.3041199618,114.17924528,0.0,0.0,0.0,0.0,0.0,0.0,0.0,0.0,0.0,0.0,0
0,349,0,,0,0,22.3041347622,114.17923901,0.0,0.0,0.0,0.0,0.0,0.0,0.0,0.0,0.0,0.0,0
0,350,0,,0,0,22.3050160161,114.178947542,0.0,0.0,0.0,0.0,0.0,0.0,0.0,0.0,0.0,0.0,0
0,351,0,,0,0,22.3041768253,114.179234036,0.0,0.0,0.0,0.0,0.0,0.0,0.0,0.0,0.0,0.0,0
0,352,0,,0,0,22.3041766548,114.179231855,0.0,0.0,0.0,0.0,0.0,0.0,0.0,0.0,0.0,0.0,0
0,353,0,,0,0,22.3041829103,114.179228794,0.0,0.0,0.0,0.0,0.0,0.0,0.0,0.0,0.0,0.0,0
0,354,0,,0,0,22.3041917779,114.179226666,0.0,0.0,0.0,0.0,0.0,0.0,0.0,0.0,0.0,0.0,0
0,355,0,,0,0,22.3041831082,114.179226737,0.0,0.0,0.0,0.0,0.0,0.0,0.0,0.0,0.0,0.0,0
0,356,0,,0,0,22.3041717482,114.179231719,0.0,0.0,0.0,0.0,0.0,0.0,0.0,0.0,0.0,0.0,0
0,357,0,,0,0,22.304155253,114.179238306,0.0,0.0,0.0,0.0,0.0,0.0,0.0,0.0,0.0,0.0,0
0,358,0,,0,0,22.304166547,114.179238637,0.0,0.0,0.0,0.0,0.0,0.0,0.0,0.0,0.0,0.0,0
0,359,0,,0,0,22.3041664296,114.179240454,0.0,0.0,0.0,0.0,0.0,0.0,0.0,0.0,0.0,0.0,0
0,360,0,,0,0,22.3041747153,114.179238495,0.0,0.0,0.0,0.0,0.0,0.0,0.0,0.0,0.0,0.0,0
0,361,0,,0,0,22.3041828231,114.179229357,0.0,0.0,0.0,0.0,0.0,0.0,0.0,0.0,0.0,0.0,0
0,362,0,,0,0,22.3041376763,114.179175346,0.0,0.0,0.0,0.0,0.0,0.0,0.0,0.0,0.0,0.0,0
0,363,0,,0,0,22.3039933238,114.178942801,0.0,0.0,0.0,0.0,0.0,0.0,0.0,0.0,0.0,0.0,0
0,364,0,,0,0,22.3040005821,114.178958959,0.0,0.0,0.0,0.0,0.0,0.0,0.0,0.0,0.0,0.0,0
0,365,0,,0,0,22.3040525696,114.178871542,0.0,0.0,0.0,0.0,0.0,0.0,0.0,0.0,0.0,0.0,0
0,366,0,,0,0,22.3040784089,114.178876014,0.0,0.0,0.0,0.0,0.0,0.0,0.0,0.0,0.0,0.0,0
0,367,0,,0,0,22.3041605889,114.178916185,0.0,0.0,0.0,0.0,0.0,0.0,0.0,0.0,0.0,0.0,0
0,368,0,,0,0,22.3041208563,114.178915991,0.0,0.0,0.0,0.0,0.0,0.0,0.0,0.0,0.0,0.0,0
0,369,0,,0,0,22.3044219873,114.179006931,0.0,0.0,0.0,0.0,0.0,0.0,0.0,0.0,0.0,0.0,0
0,370,0,,0,0,22.3042062805,114.178942561,0.0,0.0,0.0,0.0,0.0,0.0,0.0,0.0,0.0,0.0,0
0,371,0,,0,0,22.3045183523,114.179037987,0.0,0.0,0.0,0.0,0.0,0.0,0.0,0.0,0.0,0.0,0
0,372,0,,0,0,22.3039591371,114.179035311,0.0,0.0,0.0,0.0,0.0,0.0,0.0,0.0,0.0,0.0,0
0,373,0,,0,0,22.3039815588,114.179045194,0.0,0.0,0.0,0.0,0.0,0.0,0.0,0.0,0.0,0.0,0
0,374,0,,0,0,22.3041092936,114.178958049,0.0,0.0,0.0,0.0,0.0,0.0,0.0,0.0,0.0,0.0,0
0,375,0,,0,0,22.3035075482,114.178783278,0.0,0.0,0.0,0.0,0.0,0.0,0.0,0.0,0.0,0.0,0
0,376,0,,0,0,22.3034034774,114.178768981,0.0,0.0,0.0,0.0,0.0,0.0,0.0,0.0,0.0,0.0,0
0,377,0,,0,0,22.3036388772,114.178805504,0.0,0.0,0.0,0.0,0.0,0.0,0.0,0.0,0.0,0.0,0
0,378,0,,0,0,22.3040098976,114.178947967,0.0,0.0,0.0,0.0,0.0,0.0,0.0,0.0,0.0,0.0,0
0,379,0,,0,0,22.3034317801,114.178782765,0.0,0.0,0.0,0.0,0.0,0.0,0.0,0.0,0.0,0.0,0
0,380,0,,0,0,22.3038892934,114.178928781,0.0,0.0,0.0,0.0,0.0,0.0,0.0,0.0,0.0,0.0,0
0,381,0,,0,0,22.3039511446,114.178961881,0.0,0.0,0.0,0.0,0.0,0.0,0.0,0.0,0.0,0.0,0
0,382,0,,0,0,22.3038720835,114.179087626,0.0,0.0,0.0,0.0,0.0,0.0,0.0,0.0,0.0,0.0,0
0,383,0,,0,0,22.3038320527,114.179087326,0.0,0.0,0.0,0.0,0.0,0.0,0.0,0.0,0.0,0.0,0
0,384,0,,0,0,22.3038663071,114.179105917,0.0,0.0,0.0,0.0,0.0,0.0,0.0,0.0,0.0,0.0,0
0,385,0,,0,0,22.3038841806,114.179103133,0.0,0.0,0.0,0.0,0.0,0.0,0.0,0.0,0.0,0.0,0
0,386,0,,0,0,22.3039103312,114.179085533,0.0,0.0,0.0,0.0,0.0,0.0,0.0,0.0,0.0,0.0,0
0,387,0,,0,0,22.303873785,114.179116773,0.0,0.0,0.0,0.0,0.0,0.0,0.0,0.0,0.0,0.0,0
0,388,0,,0,0,22.3040318792,114.179109495,0.0,0.0,0.0,0.0,0.0,0.0,0.0,0.0,0.0,0.0,0
0,389,0,,0,0,22.303660793,114.178927612,0.0,0.0,0.0,0.0,0.0,0.0,0.0,0.0,0.0,0.0,0
0,390,0,,0,0,22.3035234762,114.178794958,0.0,0.0,0.0,0.0,0.0,0.0,0.0,0.0,0.0,0.0,0
0,391,0,,0,0,22.3034434606,114.178648024,0.0,0.0,0.0,0.0,0.0,0.0,0.0,0.0,0.0,0.0,0
0,392,0,,0,0,22.3034323397,114.178664116,0.0,0.0,0.0,0.0,0.0,0.0,0.0,0.0,0.0,0.0,0
0,393,0,,0,0,22.3034715713,114.178596473,0.0,0.0,0.0,0.0,0.0,0.0,0.0,0.0,0.0,0.0,0
0,394,0,,0,0,22.3036714173,114.178669814,0.0,0.0,0.0,0.0,0.0,0.0,0.0,0.0,0.0,0.0,0
0,395,0,,0,0,22.3036165957,114.178649952,0.0,0.0,0.0,0.0,0.0,0.0,0.0,0.0,0.0,0.0,0
0,396,0,,0,0,22.303961439,114.178774303,0.0,0.0,0.0,0.0,0.0,0.0,0.0,0.0,0.0,0.0,0
0,397,0,,0,0,22.3039282503,114.178779585,0.0,0.0,0.0,0.0,0.0,0.0,0.0,0.0,0.0,0.0,0
0,398,0,,0,0,22.3039519967,114.178805882,0.0,0.0,0.0,0.0,0.0,0.0,0.0,0.0,0.0,0.0,0
0,399,0,,0,0,22.3039538991,114.178845917,0.0,0.0,0.0,0.0,0.0,0.0,0.0,0.0,0.0,0.0,0
0,400,0,,0,0,22.3028667141,114.178878959,0.0,0.0,0.0,0.0,0.0,0.0,0.0,0.0,0.0,0.0,0
0,401,0,,0,0,22.3028813438,114.17870597,0.0,0.0,0.0,0.0,0.0,0.0,0.0,0.0,0.0,0.0,0
0,402,0,,0,0,22.3028934574,114.178726195,0.0,0.0,0.0,0.0,0.0,0.0,0.0,0.0,0.0,0.0,0
0,403,0,,0,0,22.3030172223,114.178898493,0.0,0.0,0.0,0.0,0.0,0.0,0.0,0.0,0.0,0.0,0
0,404,0,,0,0,22.3033473826,114.178751303,0.0,0.0,0.0,0.0,0.0,0.0,0.0,0.0,0.0,0.0,0
0,405,0,,0,0,22.3033833746,114.178587315,0.0,0.0,0.0,0.0,0.0,0.0,0.0,0.0,0.0,0.0,0
0,406,0,,0,0,22.3034009027,114.178588256,0.0,0.0,0.0,0.0,0.0,0.0,0.0,0.0,0.0,0.0,0
0,407,0,,0,0,22.3033463682,114.178490806,0.0,0.0,0.0,0.0,0.0,0.0,0.0,0.0,0.0,0.0,0
0,408,0,,0,0,22.3033587245,114.178422248,0.0,0.0,0.0,0.0,0.0,0.0,0.0,0.0,0.0,0.0,0
0,409,0,,0,0,22.3033730085,114.178652736,0.0,0.0,0.0,0.0,0.0,0.0,0.0,0.0,0.0,0.0,0
0,410,0,,0,0,22.3033264442,114.178696316,0.0,0.0,0.0,0.0,0.0,0.0,0.0,0.0,0.0,0.0,0
0,411,0,,0,0,22.3031087531,114.178912456,0.0,0.0,0.0,0.0,0.0,0.0,0.0,0.0,0.0,0.0,0
0,412,0,,0,0,22.302749317,114.178633022,0.0,0.0,0.0,0.0,0.0,0.0,0.0,0.0,0.0,0.0,0
0,413,0,,0,0,22.2984796504,114.180043232,0.0,0.0,0.0,0.0,0.0,0.0,0.0,0.0,0.0,0.0,0
0,414,0,,0,0,22.3002731269,114.179473054,0.0,0.0,0.0,0.0,0.0,0.0,0.0,0.0,0.0,0.0,0
0,415,0,,0,0,22.3022165062,114.17882907,0.0,0.0,0.0,0.0,0.0,0.0,0.0,0.0,0.0,0.0,0
0,416,0,,0,0,22.3021846821,114.178837004,0.0,0.0,0.0,0.0,0.0,0.0,0.0,0.0,0.0,0.0,0
0,417,0,,0,0,22.3021621438,114.178826194,0.0,0.0,0.0,0.0,0.0,0.0,0.0,0.0,0.0,0.0,0
0,418,0,,0,0,22.3020971545,114.178846529,0.0,0.0,0.0,0.0,0.0,0.0,0.0,0.0,0.0,0.0,0
0,419,0,,0,0,22.3021093775,114.178871454,0.0,0.0,0.0,0.0,0.0,0.0,0.0,0.0,0.0,0.0,0
0,420,0,,0,0,22.3026397223,114.178702029,0.0,0.0,0.0,0.0,0.0,0.0,0.0,0.0,0.0,0.0,0
0,421,0,,0,0,22.3026464689,114.178691744,0.0,0.0,0.0,0.0,0.0,0.0,0.0,0.0,0.0,0.0,0
0,422,0,,0,0,22.302205937,114.178540287,0.0,0.0,0.0,0.0,0.0,0.0,0.0,0.0,0.0,0.0,0
0,423,0,,0,0,22.3024692576,114.178665887,0.0,0.0,0.0,0.0,0.0,0.0,0.0,0.0,0.0,0.0,0
0,424,0,,0,0,22.3033844611,114.179101276,0.0,0.0,0.0,0.0,0.0,0.0,0.0,0.0,0.0,0.0,0
0,425,0,,0,0,22.3014600899,114.178527239,0.0,0.0,0.0,0.0,0.0,0.0,0.0,0.0,0.0,0.0,0
0,426,0,,0,0,22.3026488142,114.179314249,0.0,0.0,0.0,0.0,0.0,0.0,0.0,0.0,0.0,0.0,0
0,427,0,,0,0,22.3023128328,114.178997844,0.0,0.0,0.0,0.0,0.0,0.0,0.0,0.0,0.0,0.0,0
0,428,0,,0,0,22.3023211445,114.178995519,0.0,0.0,0.0,0.0,0.0,0.0,0.0,0.0,0.0,0.0,0
0,429,0,,0,0,22.3023448232,114.179013907,0.0,0.0,0.0,0.0,0.0,0.0,0.0,0.0,0.0,0.0,0
0,430,0,,0,0,22.302286883,114.179001963,0.0,0.0,0.0,0.0,0.0,0.0,0.0,0.0,0.0,0.0,0
0,431,0,,0,0,22.3022442781,114.178973963,0.0,0.0,0.0,0.0,0.0,0.0,0.0,0.0,0.0,0.0,0
0,432,0,,0,0,22.3021955675,114.178981374,0.0,0.0,0.0,0.0,0.0,0.0,0.0,0.0,0.0,0.0,0
0,433,0,,0,0,22.3021736286,114.178972161,0.0,0.0,0.0,0.0,0.0,0.0,0.0,0.0,0.0,0.0,0
0,434,0,,0,0,22.3021427579,114.178974419,0.0,0.0,0.0,0.0,0.0,0.0,0.0,0.0,0.0,0.0,0
0,435,0,,0,0,22.3024074505,114.178956826,0.0,0.0,0.0,0.0,0.0,0.0,0.0,0.0,0.0,0.0,0
0,436,0,,0,0,22.3019348919,114.178838188,0.0,0.0,0.0,0.0,0.0,0.0,0.0,0.0,0.0,0.0,0
0,437,0,,0,0,22.3024181807,114.1789571,0.0,0.0,0.0,0.0,0.0,0.0,0.0,0.0,0.0,0.0,0
0,438,0,,0,0,22.3019197374,114.178825613,0.0,0.0,0.0,0.0,0.0,0.0,0.0,0.0,0.0,0.0,0
0,439,0,,0,0,22.3024958565,114.179014716,0.0,0.0,0.0,0.0,0.0,0.0,0.0,0.0,0.0,0.0,0
0,440,0,,0,0,22.3022192986,114.179056412,0.0,0.0,0.0,0.0,0.0,0.0,0.0,0.0,0.0,0.0,0
0,441,0,,0,0,22.3024595528,114.179047982,0.0,0.0,0.0,0.0,0.0,0.0,0.0,0.0,0.0,0.0,0
0,442,0,,0,0,22.3024307261,114.179080014,0.0,0.0,0.0,0.0,0.0,0.0,0.0,0.0,0.0,0.0,0
0,443,0,,0,0,22.302548034,114.179097124,0.0,0.0,0.0,0.0,0.0,0.0,0.0,0.0,0.0,0.0,0
0,444,0,,0,0,22.3021712069,114.17905379,0.0,0.0,0.0,0.0,0.0,0.0,0.0,0.0,0.0,0.0,0
0,445,0,,0,0,22.3021353677,114.179081664,0.0,0.0,0.0,0.0,0.0,0.0,0.0,0.0,0.0,0.0,0
0,446,0,,0,0,22.3020267921,114.179108198,0.0,0.0,0.0,0.0,0.0,0.0,0.0,0.0,0.0,0.0,0
0,447,0,,0,0,22.3019532819,114.179149561,0.0,0.0,0.0,0.0,0.0,0.0,0.0,0.0,0.0,0.0,0
0,448,0,,0,0,22.301704741,114.179189371,0.0,0.0,0.0,0.0,0.0,0.0,0.0,0.0,0.0,0.0,0
0,449,0,,0,0,22.3016171647,114.179319703,0.0,0.0,0.0,0.0,0.0,0.0,0.0,0.0,0.0,0.0,0
0,450,0,,0,0,22.3016458002,114.179396068,0.0,0.0,0.0,0.0,0.0,0.0,0.0,0.0,0.0,0.0,0
0,451,0,,0,0,22.3023612504,114.179617206,0.0,0.0,0.0,0.0,0.0,0.0,0.0,0.0,0.0,0.0,0
0,452,0,,0,0,22.3022033255,114.179624351,0.0,0.0,0.0,0.0,0.0,0.0,0.0,0.0,0.0,0.0,0
0,453,0,,0,0,22.3016815874,114.179572689,0.0,0.0,0.0,0.0,0.0,0.0,0.0,0.0,0.0,0.0,0
0,454,0,,0,0,22.3030393708,114.179691002,0.0,0.0,0.0,0.0,0.0,0.0,0.0,0.0,0.0,0.0,0
0,455,0,,0,0,22.3022796604,114.179813456,0.0,0.0,0.0,0.0,0.0,0.0,0.0,0.0,0.0,0.0,0
0,456,0,,0,0,22.3023201794,114.179801562,0.0,0.0,0.0,0.0,0.0,0.0,0.0,0.0,0.0,0.0,0
0,457,0,,0,0,22.3017367173,114.179738258,0.0,0.0,0.0,0.0,0.0,0.0,0.0,0.0,0.0,0.0,0
0,458,0,,0,0,22.3023673136,114.179866592,0.0,0.0,0.0,0.0,0.0,0.0,0.0,0.0,0.0,0.0,0
0,459,0,,0,0,22.3028542434,114.179956937,0.0,0.0,0.0,0.0,0.0,0.0,0.0,0.0,0.0,0.0,0
0,460,0,,0,0,22.3029384824,114.179936446,0.0,0.0,0.0,0.0,0.0,0.0,0.0,0.0,0.0,0.0,0
0,461,0,,0,0,22.302923036,114.179982848,0.0,0.0,0.0,0.0,0.0,0.0,0.0,0.0,0.0,0.0,0
0,462,0,,0,0,22.3030179111,114.180008839,0.0,0.0,0.0,0.0,0.0,0.0,0.0,0.0,0.0,0.0,0
0,463,0,,0,0,22.3027988382,114.180019821,0.0,0.0,0.0,0.0,0.0,0.0,0.0,0.0,0.0,0.0,0
0,464,0,,0,0,22.3030059737,114.180175384,0.0,0.0,0.0,0.0,0.0,0.0,0.0,0.0,0.0,0.0,0
0,465,0,,0,0,22.3030671783,114.18021779,0.0,0.0,0.0,0.0,0.0,0.0,0.0,0.0,0.0,0.0,0
0,466,0,,0,0,22.3030881747,114.180253557,0.0,0.0,0.0,0.0,0.0,0.0,0.0,0.0,0.0,0.0,0
0,467,0,,0,0,22.3031266587,114.180307469,0.0,0.0,0.0,0.0,0.0,0.0,0.0,0.0,0.0,0.0,0
0,468,0,,0,0,22.3031859618,114.180389383,0.0,0.0,0.0,0.0,0.0,0.0,0.0,0.0,0.0,0.0,0
0,469,0,,0,0,22.3032129733,114.180449933,0.0,0.0,0.0,0.0,0.0,0.0,0.0,0.0,0.0,0.0,0
0,470,0,,0,0,22.3032614588,114.180486339,0.0,0.0,0.0,0.0,0.0,0.0,0.0,0.0,0.0,0.0,0
0,471,0,,0,0,22.3030466788,114.180432679,0.0,0.0,0.0,0.0,0.0,0.0,0.0,0.0,0.0,0.0,0
0,472,0,,0,0,22.3033732048,114.180575512,0.0,0.0,0.0,0.0,0.0,0.0,0.0,0.0,0.0,0.0,0
0,473,0,,0,0,22.305051815,114.181452963,0.0,0.0,0.0,0.0,0.0,0.0,0.0,0.0,0.0,0.0,0
0,474,0,,0,0,22.3055966791,114.180856471,0.0,0.0,0.0,0.0,0.0,0.0,0.0,0.0,0.0,0.0,0
0,475,0,,0,0,22.3035068982,114.180586562,0.0,0.0,0.0,0.0,0.0,0.0,0.0,0.0,0.0,0.0,0
0,476,0,,0,0,22.30340303,114.180630387,0.0,0.0,0.0,0.0,0.0,0.0,0.0,0.0,0.0,0.0,0
0,477,0,,0,0,22.3036391669,114.180702618,0.0,0.0,0.0,0.0,0.0,0.0,0.0,0.0,0.0,0.0,0
0,478,0,,0,0,22.3036644038,114.180703465,0.0,0.0,0.0,0.0,0.0,0.0,0.0,0.0,0.0,0.0,0
0,479,0,,0,0,22.3035552798,114.180734651,0.0,0.0,0.0,0.0,0.0,0.0,0.0,0.0,0.0,0.0,0
0,480,0,,0,0,22.3038097906,114.180611706,0.0,0.0,0.0,0.0,0.0,0.0,0.0,0.0,0.0,0.0,0
0,481,0,,0,0,22.3038196203,114.18065698,0.0,0.0,0.0,0.0,0.0,0.0,0.0,0.0,0.0,0.0,0
0,482,0,,0,0,22.3038640669,114.180714882,0.0,0.0,0.0,0.0,0.0,0.0,0.0,0.0,0.0,0.0,0
0,483,0,,0,0,22.3039200435,114.18071052,0.0,0.0,0.0,0.0,0.0,0.0,0.0,0.0,0.0,0.0,0
0,484,0,,0,0,22.3039682892,114.180736018,0.0,0.0,0.0,0.0,0.0,0.0,0.0,0.0,0.0,0.0,0
0,485,0,,0,0,22.3039522829,114.180896834,0.0,0.0,0.0,0.0,0.0,0.0,0.0,0.0,0.0,0.0,0
0,486,0,,0,0,22.3040807923,114.180757688,0.0,0.0,0.0,0.0,0.0,0.0,0.0,0.0,0.0,0.0,0
0,487,0,,0,0,22.3040614422,114.180941653,0.0,0.0,0.0,0.0,0.0,0.0,0.0,0.0,0.0,0.0,0
0,488,0,,0,0,22.3041981294,114.18084319,0.0,0.0,0.0,0.0,0.0,0.0,0.0,0.0,0.0,0.0,0
0,489,0,,0,0,22.304165833,114.1808686,0.0,0.0,0.0,0.0,0.0,0.0,0.0,0.0,0.0,0.0,0
0,490,0,,0,0,22.3042916974,114.180851183,0.0,0.0,0.0,0.0,0.0,0.0,0.0,0.0,0.0,0.0,0
0,491,0,,0,0,22.3043330022,114.180808504,0.0,0.0,0.0,0.0,0.0,0.0,0.0,0.0,0.0,0.0,0
0,492,0,,0,0,22.3043615872,114.180813605,0.0,0.0,0.0,0.0,0.0,0.0,0.0,0.0,0.0,0.0,0
0,493,0,,0,0,22.3043752722,114.180916266,0.0,0.0,0.0,0.0,0.0,0.0,0.0,0.0,0.0,0.0,0
0,494,0,,0,0,22.3044247615,114.180990013,0.0,0.0,0.0,0.0,0.0,0.0,0.0,0.0,0.0,0.0,0
0,495,0,,0,0,22.3044854571,114.180992947,0.0,0.0,0.0,0.0,0.0,0.0,0.0,0.0,0.0,0.0,0
0,496,0,,0,0,22.3041801731,114.181567891,0.0,0.0,0.0,0.0,0.0,0.0,0.0,0.0,0.0,0.0,0
0,497,0,,0,0,22.3042068154,114.181587451,0.0,0.0,0.0,0.0,0.0,0.0,0.0,0.0,0.0,0.0,0
0,498,0,,0,0,22.3042855669,114.181573437,0.0,0.0,0.0,0.0,0.0,0.0,0.0,0.0,0.0,0.0,0
0,499,0,,0,0,22.3044311466,114.181388127,0.0,0.0,0.0,0.0,0.0,0.0,0.0,0.0,0.0,0.0,0
0,500,0,,0,0,22.3044787922,114.181393104,0.0,0.0,0.0,0.0,0.0,0.0,0.0,0.0,0.0,0.0,0
0,501,0,,0,0,22.3045580623,114.181400236,0.0,0.0,0.0,0.0,0.0,0.0,0.0,0.0,0.0,0.0,0
0,502,0,,0,0,22.3046300011,114.18143213,0.0,0.0,0.0,0.0,0.0,0.0,0.0,0.0,0.0,0.0,0
0,503,0,,0,0,22.3048867363,114.181183252,0.0,0.0,0.0,0.0,0.0,0.0,0.0,0.0,0.0,0.0,0
0,504,0,,0,0,22.3049526973,114.181170489,0.0,0.0,0.0,0.0,0.0,0.0,0.0,0.0,0.0,0.0,0
0,505,0,,0,0,22.3049830356,114.181202707,0.0,0.0,0.0,0.0,0.0,0.0,0.0,0.0,0.0,0.0,0
0,506,0,,0,0,22.3050420807,114.181232409,0.0,0.0,0.0,0.0,0.0,0.0,0.0,0.0,0.0,0.0,0
0,507,0,,0,0,22.3051232369,114.18118783,0.0,0.0,0.0,0.0,0.0,0.0,0.0,0.0,0.0,0.0,0
0,508,0,,0,0,22.3051415834,114.181228493,0.0,0.0,0.0,0.0,0.0,0.0,0.0,0.0,0.0,0.0,0
0,509,0,,0,0,22.305179511,114.181267237,0.0,0.0,0.0,0.0,0.0,0.0,0.0,0.0,0.0,0.0,0
0,510,0,,0,0,22.3052323296,114.1813156,0.0,0.0,0.0,0.0,0.0,0.0,0.0,0.0,0.0,0.0,0
0,511,0,,0,0,22.3052648159,114.181317176,0.0,0.0,0.0,0.0,0.0,0.0,0.0,0.0,0.0,0.0,0
0,512,0,,0,0,22.3052996381,114.181351761,0.0,0.0,0.0,0.0,0.0,0.0,0.0,0.0,0.0,0.0,0
0,513,0,,0,0,22.3053132197,114.181366094,0.0,0.0,0.0,0.0,0.0,0.0,0.0,0.0,0.0,0.0,0
0,514,0,,0,0,22.3053388364,114.181346658,0.0,0.0,0.0,0.0,0.0,0.0,0.0,0.0,0.0,0.0,0
0,515,0,,0,0,22.3052261403,114.181535766,0.0,0.0,0.0,0.0,0.0,0.0,0.0,0.0,0.0,0.0,0
0,516,0,,0,0,22.3052710942,114.181443113,0.0,0.0,0.0,0.0,0.0,0.0,0.0,0.0,0.0,0.0,0
0,517,0,,0,0,22.3052995448,114.18137347,0.0,0.0,0.0,0.0,0.0,0.0,0.0,0.0,0.0,0.0,0
0,518,0,,0,0,22.3053312125,114.181362836,0.0,0.0,0.0,0.0,0.0,0.0,0.0,0.0,0.0,0.0,0
0,519,0,,0,0,22.3053346342,114.181316887,0.0,0.0,0.0,0.0,0.0,0.0,0.0,0.0,0.0,0.0,0
0,520,0,,0,0,22.3053679871,114.181294453,0.0,0.0,0.0,0.0,0.0,0.0,0.0,0.0,0.0,0.0,0
0,521,0,,0,0,22.3053618208,114.181326924,0.0,0.0,0.0,0.0,0.0,0.0,0.0,0.0,0.0,0.0,0
0,522,0,,0,0,22.3053655664,114.181322132,0.0,0.0,0.0,0.0,0.0,0.0,0.0,0.0,0.0,0.0,0
0,523,0,,0,0,22.3053633646,114.181333012,0.0,0.0,0.0,0.0,0.0,0.0,0.0,0.0,0.0,0.0,0
0,524,0,,0,0,22.3053639235,114.18133102,0.0,0.0,0.0,0.0,0.0,0.0,0.0,0.0,0.0,0.0,0
0,525,0,,0,0,22.3053566012,114.181314751,0.0,0.0,0.0,0.0,0.0,0.0,0.0,0.0,0.0,0.0,0
0,526,0,,0,0,22.3053610016,114.181306784,0.0,0.0,0.0,0.0,0.0,0.0,0.0,0.0,0.0,0.0,0
0,527,0,,0,0,22.3053862157,114.181264786,0.0,0.0,0.0,0.0,0.0,0.0,0.0,0.0,0.0,0.0,0
0,528,0,,0,0,22.3054099431,114.181258966,0.0,0.0,0.0,0.0,0.0,0.0,0.0,0.0,0.0,0.0,0
0,529,0,,0,0,22.3054028147,114.181300261,0.0,0.0,0.0,0.0,0.0,0.0,0.0,0.0,0.0,0.0,0
0,530,0,,0,0,22.3054166838,114.181324368,0.0,0.0,0.0,0.0,0.0,0.0,0.0,0.0,0.0,0.0,0
0,531,0,,0,0,22.3054160004,114.181343402,0.0,0.0,0.0,0.0,0.0,0.0,0.0,0.0,0.0,0.0,0
0,532,0,,0,0,22.3054263254,114.181304186,0.0,0.0,0.0,0.0,0.0,0.0,0.0,0.0,0.0,0.0,0
0,533,0,,0,0,22.3053796068,114.181373155,0.0,0.0,0.0,0.0,0.0,0.0,0.0,0.0,0.0,0.0,0
0,534,0,,0,0,22.3054961077,114.181355545,0.0,0.0,0.0,0.0,0.0,0.0,0.0,0.0,0.0,0.0,0
0,535,0,,0,0,22.3054927506,114.18136241,0.0,0.0,0.0,0.0,0.0,0.0,0.0,0.0,0.0,0.0,0
0,536,0,,0,0,22.3054646407,114.181381781,0.0,0.0,0.0,0.0,0.0,0.0,0.0,0.0,0.0,0.0,0
0,537,0,,0,0,22.3053939387,114.181363813,0.0,0.0,0.0,0.0,0.0,0.0,0.0,0.0,0.0,0.0,0
0,538,0,,0,0,22.3054689498,114.181376081,0.0,0.0,0.0,0.0,0.0,0.0,0.0,0.0,0.0,0.0,0
0,539,0,,0,0,22.3054519311,114.181415197,0.0,0.0,0.0,0.0,0.0,0.0,0.0,0.0,0.0,0.0,0
0,540,0,,0,0,22.3054459289,114.181409929,0.0,0.0,0.0,0.0,0.0,0.0,0.0,0.0,0.0,0.0,0
0,541,0,,0,0,22.305512109,114.181362974,0.0,0.0,0.0,0.0,0.0,0.0,0.0,0.0,0.0,0.0,0
0,542,0,,0,0,22.3055236524,114.18136132,0.0,0.0,0.0,0.0,0.0,0.0,0.0,0.0,0.0,0.0,0
0,543,0,,0,0,22.3055403689,114.18137784,0.0,0.0,0.0,0.0,0.0,0.0,0.0,0.0,0.0,0.0,0
0,544,0,,0,0,22.3055134562,114.181408297,0.0,0.0,0.0,0.0,0.0,0.0,0.0,0.0,0.0,0.0,0
0,545,0,,0,0,22.3055208241,114.18140795,0.0,0.0,0.0,0.0,0.0,0.0,0.0,0.0,0.0,0.0,0
0,546,0,,0,0,22.3055771297,114.181382935,0.0,0.0,0.0,0.0,0.0,0.0,0.0,0.0,0.0,0.0,0
0,547,0,,0,0,22.3053453296,114.181380777,0.0,0.0,0.0,0.0,0.0,0.0,0.0,0.0,0.0,0.0,0
0,548,0,,0,0,22.3053410495,114.181348149,0.0,0.0,0.0,0.0,0.0,0.0,0.0,0.0,0.0,0.0,0
0,549,0,,0,0,22.3053380667,114.181301712,0.0,0.0,0.0,0.0,0.0,0.0,0.0,0.0,0.0,0.0,0
0,550,0,,0,0,22.3053732701,114.181329411,0.0,0.0,0.0,0.0,0.0,0.0,0.0,0.0,0.0,0.0,0
0,551,0,,0,0,22.305595691,114.181380782,0.0,0.0,0.0,0.0,0.0,0.0,0.0,0.0,0.0,0.0,0
0,552,0,,0,0,22.3056138682,114.181397929,0.0,0.0,0.0,0.0,0.0,0.0,0.0,0.0,0.0,0.0,0
0,553,0,,0,0,22.3056267595,114.181394887,0.0,0.0,0.0,0.0,0.0,0.0,0.0,0.0,0.0,0.0,0
0,554,0,,0,0,22.3056846261,114.181383496,0.0,0.0,0.0,0.0,0.0,0.0,0.0,0.0,0.0,0.0,0
0,555,0,,0,0,22.305701573,114.181456387,0.0,0.0,0.0,0.0,0.0,0.0,0.0,0.0,0.0,0.0,0
0,556,0,,0,0,22.3056411613,114.181498473,0.0,0.0,0.0,0.0,0.0,0.0,0.0,0.0,0.0,0.0,0
0,557,0,,0,0,22.3056879644,114.181471268,0.0,0.0,0.0,0.0,0.0,0.0,0.0,0.0,0.0,0.0,0
0,558,0,,0,0,22.3059194625,114.181416043,0.0,0.0,0.0,0.0,0.0,0.0,0.0,0.0,0.0,0.0,0
0,559,0,,0,0,22.3060241297,114.181450007,0.0,0.0,0.0,0.0,0.0,0.0,0.0,0.0,0.0,0.0,0
0,560,0,,0,0,22.3060813257,114.18146431,0.0,0.0,0.0,0.0,0.0,0.0,0.0,0.0,0.0,0.0,0
0,561,0,,0,0,22.3060218952,114.181365402,0.0,0.0,0.0,0.0,0.0,0.0,0.0,0.0,0.0,0.0,0
0,562,0,,0,0,22.3060774933,114.181330937,0.0,0.0,0.0,0.0,0.0,0.0,0.0,0.0,0.0,0.0,0
0,563,0,,0,0,22.3060518873,114.181237214,0.0,0.0,0.0,0.0,0.0,0.0,0.0,0.0,0.0,0.0,0
0,564,0,,0,0,22.3064710475,114.18142711,0.0,0.0,0.0,0.0,0.0,0.0,0.0,0.0,0.0,0.0,0
0,565,0,,0,0,22.306523567,114.181406748,0.0,0.0,0.0,0.0,0.0,0.0,0.0,0.0,0.0,0.0,0
0,566,0,,0,0,22.3060895878,114.181064781,0.0,0.0,0.0,0.0,0.0,0.0,0.0,0.0,0.0,0.0,0
0,567,0,,0,0,22.3061148009,114.181003854,0.0,0.0,0.0,0.0,0.0,0.0,0.0,0.0,0.0,0.0,0
0,568,0,,0,0,22.3060474557,114.180926772,0.0,0.0,0.0,0.0,0.0,0.0,0.0,0.0,0.0,0.0,0
0,569,0,,0,0,22.306028552,114.180873802,0.0,0.0,0.0,0.0,0.0,0.0,0.0,0.0,0.0,0.0,0
0,570,0,,0,0,22.3060248546,114.180786464,0.0,0.0,0.0,0.0,0.0,0.0,0.0,0.0,0.0,0.0,0
0,571,0,,0,0,22.3060680127,114.180748362,0.0,0.0,0.0,0.0,0.0,0.0,0.0,0.0,0.0,0.0,0
0,572,0,,0,0,22.3062269232,114.180824659,0.0,0.0,0.0,0.0,0.0,0.0,0.0,0.0,0.0,0.0,0
0,573,0,,0,0,22.3062465146,114.180517291,0.0,0.0,0.0,0.0,0.0,0.0,0.0,0.0,0.0,0.0,0
0,574,0,,0,0,22.3062486416,114.180792,0.0,0.0,0.0,0.0,0.0,0.0,0.0,0.0,0.0,0.0,0
0,575,0,,0,0,22.3062093685,114.180687977,0.0,0.0,0.0,0.0,0.0,0.0,0.0,0.0,0.0,0.0,0
0,576,0,,0,0,22.3062133502,114.180676824,0.0,0.0,0.0,0.0,0.0,0.0,0.0,0.0,0.0,0.0,0
0,577,0,,0,0,22.3061408029,114.180647402,0.0,0.0,0.0,0.0,0.0,0.0,0.0,0.0,0.0,0.0,0
0,578,0,,0,0,22.3068474316,114.181187865,0.0,0.0,0.0,0.0,0.0,0.0,0.0,0.0,0.0,0.0,0
0,579,0,,0,0,22.3061151725,114.180630829,0.0,0.0,0.0,0.0,0.0,0.0,0.0,0.0,0.0,0.0,0
0,580,0,,0,0,22.3061426867,114.180552643,0.0,0.0,0.0,0.0,0.0,0.0,0.0,0.0,0.0,0.0,0
0,581,0,,0,0,22.3062172051,114.180400726,0.0,0.0,0.0,0.0,0.0,0.0,0.0,0.0,0.0,0.0,0
0,582,0,,0,0,22.3062747353,114.180364797,0.0,0.0,0.0,0.0,0.0,0.0,0.0,0.0,0.0,0.0,0
0,583,0,,0,0,22.3064043966,114.180304717,0.0,0.0,0.0,0.0,0.0,0.0,0.0,0.0,0.0,0.0,0
0,584,0,,0,0,22.3064574685,114.18030183,0.0,0.0,0.0,0.0,0.0,0.0,0.0,0.0,0.0,0.0,0
0,585,0,,0,0,22.3065601991,114.180255699,0.0,0.0,0.0,0.0,0.0,0.0,0.0,0.0,0.0,0.0,0
0,586,0,,0,0,22.306638015,114.180162693,0.0,0.0,0.0,0.0,0.0,0.0,0.0,0.0,0.0,0.0,0
0,587,0,,0,0,22.3065747759,114.180055069,0.0,0.0,0.0,0.0,0.0,0.0,0.0,0.0,0.0,0.0,0
0,588,0,,0,0,22.3068134913,114.180162252,0.0,0.0,0.0,0.0,0.0,0.0,0.0,0.0,0.0,0.0,0
0,589,0,,0,0,22.3068356636,114.180081637,0.0,0.0,0.0,0.0,0.0,0.0,0.0,0.0,0.0,0.0,0
0,590,0,,0,0,22.3067740833,114.180103989,0.0,0.0,0.0,0.0,0.0,0.0,0.0,0.0,0.0,0.0,0
0,591,0,,0,0,22.3064759775,114.179908039,0.0,0.0,0.0,0.0,0.0,0.0,0.0,0.0,0.0,0.0,0
0,592,0,,0,0,22.3067026517,114.179942409,0.0,0.0,0.0,0.0,0.0,0.0,0.0,0.0,0.0,0.0,0
0,593,0,,0,0,22.3062490375,114.179856457,0.0,0.0,0.0,0.0,0.0,0.0,0.0,0.0,0.0,0.0,0
0,594,0,,0,0,22.3061735391,114.179728446,0.0,0.0,0.0,0.0,0.0,0.0,0.0,0.0,0.0,0.0,0
0,595,0,,0,0,22.3061796273,114.179786229,0.0,0.0,0.0,0.0,0.0,0.0,0.0,0.0,0.0,0.0,0
0,596,0,,0,0,22.3062927167,114.179695573,0.0,0.0,0.0,0.0,0.0,0.0,0.0,0.0,0.0,0.0,0
0,597,0,,0,0,22.3062743501,114.179751121,0.0,0.0,0.0,0.0,0.0,0.0,0.0,0.0,0.0,0.0,0
0,598,0,,0,0,22.3062240721,114.179808405,0.0,0.0,0.0,0.0,0.0,0.0,0.0,0.0,0.0,0.0,0
0,599,0,,0,0,22.3061834899,114.179788982,0.0,0.0,0.0,0.0,0.0,0.0,0.0,0.0,0.0,0.0,0
0,600,0,,0,0,22.3061510507,114.179643491,0.0,0.0,0.0,0.0,0.0,0.0,0.0,0.0,0.0,0.0,0
0,601,0,,0,0,22.3060862998,114.1796981,0.0,0.0,0.0,0.0,0.0,0.0,0.0,0.0,0.0,0.0,0
0,602,0,,0,0,22.3060612209,114.179573803,0.0,0.0,0.0,0.0,0.0,0.0,0.0,0.0,0.0,0.0,0
0,603,0,,0,0,22.3061179243,114.179584427,0.0,0.0,0.0,0.0,0.0,0.0,0.0,0.0,0.0,0.0,0
0,604,0,,0,0,22.3057412383,114.179545307,0.0,0.0,0.0,0.0,0.0,0.0,0.0,0.0,0.0,0.0,0
0,605,0,,0,0,22.3060497944,114.179450911,0.0,0.0,0.0,0.0,0.0,0.0,0.0,0.0,0.0,0.0,0
0,606,0,,0,0,22.3057527228,114.179386369,0.0,0.0,0.0,0.0,0.0,0.0,0.0,0.0,0.0,0.0,0
0,607,0,,0,0,22.3057009252,114.179281122,0.0,0.0,0.0,0.0,0.0,0.0,0.0,0.0,0.0,0.0,0
0,608,0,,0,0,22.305670697,114.179257568,0.0,0.0,0.0,0.0,0.0,0.0,0.0,0.0,0.0,0.0,0
0,609,0,,0,0,22.3056765797,114.17920498,0.0,0.0,0.0,0.0,0.0,0.0,0.0,0.0,0.0,0.0,0
0,610,0,,0,0,22.3056357607,114.179093794,0.0,0.0,0.0,0.0,0.0,0.0,0.0,0.0,0.0,0.0,0
0,611,0,,0,0,22.305645571,114.179084665,0.0,0.0,0.0,0.0,0.0,0.0,0.0,0.0,0.0,0.0,0
0,612,0,,0,0,22.3056459344,114.179016206,0.0,0.0,0.0,0.0,0.0,0.0,0.0,0.0,0.0,0.0,0
0,613,0,,0,0,22.3056277551,114.178949258,0.0,0.0,0.0,0.0,0.0,0.0,0.0,0.0,0.0,0.0,0
0,614,0,,0,0,22.3056098683,114.178913947,0.0,0.0,0.0,0.0,0.0,0.0,0.0,0.0,0.0,0.0,0
0,615,0,,0,0,22.3056213302,114.178861973,0.0,0.0,0.0,0.0,0.0,0.0,0.0,0.0,0.0,0.0,0
0,616,0,,0,0,22.3055870102,114.1788054,0.0,0.0,0.0,0.0,0.0,0.0,0.0,0.0,0.0,0.0,0
0,617,0,,0,0,22.3055242864,114.178776106,0.0,0.0,0.0,0.0,0.0,0.0,0.0,0.0,0.0,0.0,0
0,618,0,,0,0,22.3054659491,114.178744701,0.0,0.0,0.0,0.0,0.0,0.0,0.0,0.0,0.0,0.0,0
0,619,0,,0,0,22.3054351243,114.178718459,0.0,0.0,0.0,0.0,0.0,0.0,0.0,0.0,0.0,0.0,0
0,620,0,,0,0,22.3053907671,114.178680843,0.0,0.0,0.0,0.0,0.0,0.0,0.0,0.0,0.0,0.0,0
0,621,0,,0,0,22.3053348966,114.17862848,0.0,0.0,0.0,0.0,0.0,0.0,0.0,0.0,0.0,0.0,0
0,622,0,,0,0,22.3053017115,114.178589278,0.0,0.0,0.0,0.0,0.0,0.0,0.0,0.0,0.0,0.0,0
0,623,0,,0,0,22.3052257143,114.178555006,0.0,0.0,0.0,0.0,0.0,0.0,0.0,0.0,0.0,0.0,0
0,624,0,,0,0,22.3052105125,114.178513738,0.0,0.0,0.0,0.0,0.0,0.0,0.0,0.0,0.0,0.0,0
0,625,0,,0,0,22.3050940719,114.178505458,0.0,0.0,0.0,0.0,0.0,0.0,0.0,0.0,0.0,0.0,0
0,626,0,,0,0,22.3050971165,114.178481594,0.0,0.0,0.0,0.0,0.0,0.0,0.0,0.0,0.0,0.0,0
0,627,0,,0,0,22.3049125718,114.178479309,0.0,0.0,0.0,0.0,0.0,0.0,0.0,0.0,0.0,0.0,0
0,628,0,,0,0,22.3049514157,114.178453106,0.0,0.0,0.0,0.0,0.0,0.0,0.0,0.0,0.0,0.0,0
0,629,0,,0,0,22.3048072484,114.178419527,0.0,0.0,0.0,0.0,0.0,0.0,0.0,0.0,0.0,0.0,0
0,630,0,,0,0,22.304708747,114.178411139,0.0,0.0,0.0,0.0,0.0,0.0,0.0,0.0,0.0,0.0,0
0,631,0,,0,0,22.3047165846,114.178408086,0.0,0.0,0.0,0.0,0.0,0.0,0.0,0.0,0.0,0.0,0
0,632,0,,0,0,22.304649008,114.178386656,0.0,0.0,0.0,0.0,0.0,0.0,0.0,0.0,0.0,0.0,0
0,633,0,,0,0,22.3045566678,114.178332355,0.0,0.0,0.0,0.0,0.0,0.0,0.0,0.0,0.0,0.0,0
0,634,0,,0,0,22.3044238643,114.178337803,0.0,0.0,0.0,0.0,0.0,0.0,0.0,0.0,0.0,0.0,0
0,635,0,,0,0,22.3043173753,114.178329979,0.0,0.0,0.0,0.0,0.0,0.0,0.0,0.0,0.0,0.0,0
0,636,0,,0,0,22.3043158623,114.178294032,0.0,0.0,0.0,0.0,0.0,0.0,0.0,0.0,0.0,0.0,0
0,637,0,,0,0,22.3042637945,114.178288935,0.0,0.0,0.0,0.0,0.0,0.0,0.0,0.0,0.0,0.0,0
0,638,0,,0,0,22.3041889018,114.178258318,0.0,0.0,0.0,0.0,0.0,0.0,0.0,0.0,0.0,0.0,0
0,639,0,,0,0,22.3041409751,114.178234017,0.0,0.0,0.0,0.0,0.0,0.0,0.0,0.0,0.0,0.0,0
0,640,0,,0,0,22.3041725002,114.178176963,0.0,0.0,0.0,0.0,0.0,0.0,0.0,0.0,0.0,0.0,0
0,641,0,,0,0,22.3040810114,114.178161364,0.0,0.0,0.0,0.0,0.0,0.0,0.0,0.0,0.0,0.0,0
0,642,0,,0,0,22.3039945852,114.178135897,0.0,0.0,0.0,0.0,0.0,0.0,0.0,0.0,0.0,0.0,0
0,643,0,,0,0,22.3039778395,114.178083761,0.0,0.0,0.0,0.0,0.0,0.0,0.0,0.0,0.0,0.0,0
0,644,0,,0,0,22.3038838671,114.178089364,0.0,0.0,0.0,0.0,0.0,0.0,0.0,0.0,0.0,0.0,0
0,645,0,,0,0,22.3038437127,114.178051509,0.0,0.0,0.0,0.0,0.0,0.0,0.0,0.0,0.0,0.0,0
0,646,0,,0,0,22.3037992489,114.178022426,0.0,0.0,0.0,0.0,0.0,0.0,0.0,0.0,0.0,0.0,0
0,647,0,,0,0,22.3037940658,114.177981582,0.0,0.0,0.0,0.0,0.0,0.0,0.0,0.0,0.0,0.0,0
0,648,0,,0,0,22.3037155726,114.177977356,0.0,0.0,0.0,0.0,0.0,0.0,0.0,0.0,0.0,0.0,0
0,649,0,,0,0,22.3037337466,114.177915878,0.0,0.0,0.0,0.0,0.0,0.0,0.0,0.0,0.0,0.0,0
0,650,0,,0,0,22.3036942575,114.177914379,0.0,0.0,0.0,0.0,0.0,0.0,0.0,0.0,0.0,0.0,0
0,651,0,,0,0,22.3036807821,114.177898572,0.0,0.0,0.0,0.0,0.0,0.0,0.0,0.0,0.0,0.0,0
0,652,0,,0,0,22.3037262785,114.177844211,0.0,0.0,0.0,0.0,0.0,0.0,0.0,0.0,0.0,0.0,0
0,653,0,,0,0,22.3037255632,114.177829236,0.0,0.0,0.0,0.0,0.0,0.0,0.0,0.0,0.0,0.0,0
0,654,0,,0,0,22.303671556,114.1778467,0.0,0.0,0.0,0.0,0.0,0.0,0.0,0.0,0.0,0.0,0
0,655,0,,0,0,22.3036002454,114.177818444,0.0,0.0,0.0,0.0,0.0,0.0,0.0,0.0,0.0,0.0,0
0,656,0,,0,0,22.3035869041,114.177822614,0.0,0.0,0.0,0.0,0.0,0.0,0.0,0.0,0.0,0.0,0
0,657,0,,0,0,22.3034540912,114.177763992,0.0,0.0,0.0,0.0,0.0,0.0,0.0,0.0,0.0,0.0,0
0,658,0,,0,0,22.3035833791,114.177826664,0.0,0.0,0.0,0.0,0.0,0.0,0.0,0.0,0.0,0.0,0
0,659,0,,0,0,22.3035294079,114.177813842,0.0,0.0,0.0,0.0,0.0,0.0,0.0,0.0,0.0,0.0,0
0,660,0,,0,0,22.3035191414,114.17781787,0.0,0.0,0.0,0.0,0.0,0.0,0.0,0.0,0.0,0.0,0
0,661,0,,0,0,22.3035690012,114.177812498,0.0,0.0,0.0,0.0,0.0,0.0,0.0,0.0,0.0,0.0,0
0,662,0,,0,0,22.303567476,114.177802981,0.0,0.0,0.0,0.0,0.0,0.0,0.0,0.0,0.0,0.0,0
0,663,0,,0,0,22.3034858634,114.177794217,0.0,0.0,0.0,0.0,0.0,0.0,0.0,0.0,0.0,0.0,0
0,664,0,,0,0,22.3035366762,114.177800915,0.0,0.0,0.0,0.0,0.0,0.0,0.0,0.0,0.0,0.0,0
0,665,0,,0,0,22.3036005225,114.177799657,0.0,0.0,0.0,0.0,0.0,0.0,0.0,0.0,0.0,0.0,0
0,666,0,,0,0,22.3036119473,114.177801336,0.0,0.0,0.0,0.0,0.0,0.0,0.0,0.0,0.0,0.0,0
0,667,0,,0,0,22.3035865006,114.177801684,0.0,0.0,0.0,0.0,0.0,0.0,0.0,0.0,0.0,0.0,0
0,668,0,,0,0,22.3036154523,114.17775198,0.0,0.0,0.0,0.0,0.0,0.0,0.0,0.0,0.0,0.0,0
0,669,0,,0,0,22.303585325,114.177753983,0.0,0.0,0.0,0.0,0.0,0.0,0.0,0.0,0.0,0.0,0
0,670,0,,0,0,22.3035153967,114.177776278,0.0,0.0,0.0,0.0,0.0,0.0,0.0,0.0,0.0,0.0,0
0,671,0,,0,0,22.3035262649,114.177769849,0.0,0.0,0.0,0.0,0.0,0.0,0.0,0.0,0.0,0.0,0
0,672,0,,0,0,22.3035328581,114.177739859,0.0,0.0,0.0,0.0,0.0,0.0,0.0,0.0,0.0,0.0,0
0,673,0,,0,0,22.3034592506,114.177740642,0.0,0.0,0.0,0.0,0.0,0.0,0.0,0.0,0.0,0.0,0
0,674,0,,0,0,22.3034827966,114.177719946,0.0,0.0,0.0,0.0,0.0,0.0,0.0,0.0,0.0,0.0,0
0,675,0,,0,0,22.3034592892,114.177694651,0.0,0.0,0.0,0.0,0.0,0.0,0.0,0.0,0.0,0.0,0
0,676,0,,0,0,22.3036232568,114.177663844,0.0,0.0,0.0,0.0,0.0,0.0,0.0,0.0,0.0,0.0,0
0,677,0,,0,0,22.3036004442,114.177643428,0.0,0.0,0.0,0.0,0.0,0.0,0.0,0.0,0.0,0.0,0
0,678,0,,0,0,22.3033814724,114.177610882,0.0,0.0,0.0,0.0,0.0,0.0,0.0,0.0,0.0,0.0,0
0,679,0,,0,0,22.303391532,114.17755528,0.0,0.0,0.0,0.0,0.0,0.0,0.0,0.0,0.0,0.0,0
0,680,0,,0,0,22.3033361957,114.177543186,0.0,0.0,0.0,0.0,0.0,0.0,0.0,0.0,0.0,0.0,0
0,681,0,,0,0,22.3032951389,114.177494435,0.0,0.0,0.0,0.0,0.0,0.0,0.0,0.0,0.0,0.0,0
0,682,0,,0,0,22.3032818061,114.177493322,0.0,0.0,0.0,0.0,0.0,0.0,0.0,0.0,0.0,0.0,0
0,683,0,,0,0,22.3032960121,114.177512635,0.0,0.0,0.0,0.0,0.0,0.0,0.0,0.0,0.0,0.0,0
0,684,0,,0,0,22.303263694,114.177483616,0.0,0.0,0.0,0.0,0.0,0.0,0.0,0.0,0.0,0.0,0
0,685,0,,0,0,22.3032067805,114.177492257,0.0,0.0,0.0,0.0,0.0,0.0,0.0,0.0,0.0,0.0,0
0,686,0,,0,0,22.3031121706,114.177471618,0.0,0.0,0.0,0.0,0.0,0.0,0.0,0.0,0.0,0.0,0
0,687,0,,0,0,22.3030306585,114.177462334,0.0,0.0,0.0,0.0,0.0,0.0,0.0,0.0,0.0,0.0,0
0,688,0,,0,0,22.3029223639,114.177488436,0.0,0.0,0.0,0.0,0.0,0.0,0.0,0.0,0.0,0.0,0
0,689,0,,0,0,22.3028577661,114.177522492,0.0,0.0,0.0,0.0,0.0,0.0,0.0,0.0,0.0,0.0,0
0,690,0,,0,0,22.3028424694,114.177522244,0.0,0.0,0.0,0.0,0.0,0.0,0.0,0.0,0.0,0.0,0
0,691,0,,0,0,22.3027570993,114.177561084,0.0,0.0,0.0,0.0,0.0,0.0,0.0,0.0,0.0,0.0,0
0,692,0,,0,0,22.3027163906,114.177610631,0.0,0.0,0.0,0.0,0.0,0.0,0.0,0.0,0.0,0.0,0
0,693,0,,0,0,22.3026790613,114.177699931,0.0,0.0,0.0,0.0,0.0,0.0,0.0,0.0,0.0,0.0,0
0,694,0,,0,0,22.3027714886,114.177711385,0.0,0.0,0.0,0.0,0.0,0.0,0.0,0.0,0.0,0.0,0
0,695,0,,0,0,22.3025940834,114.177825703,0.0,0.0,0.0,0.0,0.0,0.0,0.0,0.0,0.0,0.0,0
0,696,0,,0,0,22.3029046669,114.177816434,0.0,0.0,0.0,0.0,0.0,0.0,0.0,0.0,0.0,0.0,0
0,697,0,,0,0,22.3026629331,114.177932598,0.0,0.0,0.0,0.0,0.0,0.0,0.0,0.0,0.0,0.0,0
0,698,0,,0,0,22.3026804069,114.177976347,0.0,0.0,0.0,0.0,0.0,0.0,0.0,0.0,0.0,0.0,0
0,699,0,,0,0,22.3026611089,114.178049783,0.0,0.0,0.0,0.0,0.0,0.0,0.0,0.0,0.0,0.0,0
0,700,0,,0,0,22.3026072459,114.178104818,0.0,0.0,0.0,0.0,0.0,0.0,0.0,0.0,0.0,0.0,0
0,701,0,,0,0,22.3025845464,114.178154332,0.0,0.0,0.0,0.0,0.0,0.0,0.0,0.0,0.0,0.0,0
0,702,0,,0,0,22.302528831,114.178190261,0.0,0.0,0.0,0.0,0.0,0.0,0.0,0.0,0.0,0.0,0
0,703,0,,0,0,22.3025177037,114.178264198,0.0,0.0,0.0,0.0,0.0,0.0,0.0,0.0,0.0,0.0,0
0,704,0,,0,0,22.30236635,114.178253884,0.0,0.0,0.0,0.0,0.0,0.0,0.0,0.0,0.0,0.0,0
0,705,0,,0,0,22.302354087,114.178293705,0.0,0.0,0.0,0.0,0.0,0.0,0.0,0.0,0.0,0.0,0
0,706,0,,0,0,22.3022918971,114.178361433,0.0,0.0,0.0,0.0,0.0,0.0,0.0,0.0,0.0,0.0,0
0,707,0,,0,0,22.3023564967,114.178420657,0.0,0.0,0.0,0.0,0.0,0.0,0.0,0.0,0.0,0.0,0
0,708,0,,0,0,22.3023760442,114.178479495,0.0,0.0,0.0,0.0,0.0,0.0,0.0,0.0,0.0,0.0,0
0,709,0,,0,0,22.3023724627,114.178520891,0.0,0.0,0.0,0.0,0.0,0.0,0.0,0.0,0.0,0.0,0
0,710,0,,0,0,22.3023200075,114.178585997,0.0,0.0,0.0,0.0,0.0,0.0,0.0,0.0,0.0,0.0,0
0,711,0,,0,0,22.3023286703,114.178648461,0.0,0.0,0.0,0.0,0.0,0.0,0.0,0.0,0.0,0.0,0
0,712,0,,0,0,22.302227526,114.178713841,0.0,0.0,0.0,0.0,0.0,0.0,0.0,0.0,0.0,0.0,0
0,713,0,,0,0,22.3022155014,114.178746156,0.0,0.0,0.0,0.0,0.0,0.0,0.0,0.0,0.0,0.0,0
0,714,0,,0,0,22.3021670409,114.178785487,0.0,0.0,0.0,0.0,0.0,0.0,0.0,0.0,0.0,0.0,0
0,715,0,,0,0,22.302016795,114.17879776,0.0,0.0,0.0,0.0,0.0,0.0,0.0,0.0,0.0,0.0,0
0,716,0,,0,0,22.3019260967,114.178817467,0.0,0.0,0.0,0.0,0.0,0.0,0.0,0.0,0.0,0.0,0
0,717,0,,0,0,22.3019510275,114.178887992,0.0,0.0,0.0,0.0,0.0,0.0,0.0,0.0,0.0,0.0,0
0,718,0,,0,0,22.3018901437,114.178943825,0.0,0.0,0.0,0.0,0.0,0.0,0.0,0.0,0.0,0.0,0
0,719,0,,0,0,22.3018133587,114.178967321,0.0,0.0,0.0,0.0,0.0,0.0,0.0,0.0,0.0,0.0,0
0,720,0,,0,0,22.3016122866,114.178988962,0.0,0.0,0.0,0.0,0.0,0.0,0.0,0.0,0.0,0.0,0
